segment_id,segment_name,segment_city,segment_state,segment_distance_m,segment_avg_grade,start_lat,start_lng,sport_types,effort_count,first_effort,last_effort,best_time_s,worst_time_s,pr_date,recent_trend,avg_heartrate
41655896,Canyon entrance via Salix,San Diego,California,697.5,-2.5,32.940492,-117.154161,MountainBikeRide,32,2025-08-12 13:35:59,2026-06-16 14:48:25,100,146,2026-01-28 11:55:21,-2.7,94.3
41655826,Salix out to PV,San Diego,California,532.5,3.5,32.937546,-117.156937,MountainBikeRide,24,2025-09-04 13:25:16,2026-06-16 15:45:23,142,387,2025-09-23 16:39:42,-5.1,146.8
34723500,Cataldo East,Lexington,Massachusetts,393.6,-0.1,42.426508,-71.194358,Run,20,2024-11-03 10:12:12,2025-07-09 12:22:21,118,142,2025-04-18 07:48:36,2.0,157.5
4688514,Half way up,San Diego,CA,537.3,2.3,32.934325,-117.168879,MountainBikeRide,19,2025-08-12 13:42:27,2026-05-14 12:46:55,121,160,2026-02-06 15:20:49,3.7,139.1
2387451,Power Line Trail (sprint up),San Diego,CA,1285.14,4.4,32.934518479772784,-117.16893665503446,MountainBikeRide,19,2025-08-12 13:42:38,2026-05-14 12:47:03,400,484,2026-01-28 12:01:01,15.5,151.9
6790509,"Oops, I crapped my pants on Lenkeit bridge",San Diego,CA,67.9,-13.3,32.955355,-117.153056,MountainBikeRide,17,2025-12-09 14:00:47,2026-06-18 15:04:27,13,240,2026-02-25 16:15:37,2.1,142.4
5400192,Fenceline Blast Reverse,San Diego,CA,507.9,-0.1,32.945998,-117.168283,MountainBikeRide,14,2025-08-12 13:54:22,2026-05-14 12:58:28,101,168,2026-04-01 15:09:59,2.2,136.3
12381119,JackalopeClimb,San Diego,California,305.1,7.7,32.954251,-117.152883,MountainBikeRide,14,2025-11-04 15:32:15,2026-06-18 15:06:32,51,70,2026-03-16 15:18:59,0.4,144.0
23261730,West Farm Hill Sprint,Lexington,Massachusetts,214.6,4.5,42.422839,-71.204378,Run,12,2024-10-23 12:23:55,2025-06-26 06:36:42,84,104,2025-04-16 15:43:26,0.7,163.1
13376021,Res end,Arlington,Massachusetts,693.8,0.0,42.431205,-71.190791,Run,12,2024-11-22 11:35:27,2025-07-07 09:02:32,212,267,2025-03-28 16:48:17,-0.1,161.7
1341681,Up Cobbles (full),San Diego,CA,1264.48,5.2,32.930386,-117.17655,MountainBikeRide,12,2025-10-24 13:47:12,2026-06-16 14:57:56,481,775,2026-02-13 15:28:54,46.0,153.3
840348,Cobbles Uphill,San Diego,CA,565.408,7.3,32.9372781,-117.1778545,MountainBikeRide,12,2025-10-24 13:51:33,2026-06-16 15:04:15,252,402,2025-11-25 13:39:53,37.8,160.5
6105638,Sylvia St Climb,Lexington,MA,451.8,8.9,42.425353,-71.193437,Run,11,2024-10-13 13:57:42,2025-05-16 11:34:43,189,231,2025-01-15 13:56:39,-0.4,161.9
9538847,Cobblestone,San Diego,California,168.3,-6.8,32.934011,-117.177773,MountainBikeRide,11,2025-09-04 13:01:13,2026-05-18 15:45:56,32,46,2026-02-13 15:48:39,-0.4,134.4
12231425,Duck Pond to kip-up,San Diego,California,457.4,-2.8,32.933752,-117.177642,MountainBikeRide,11,2025-09-04 13:01:24,2026-05-18 15:46:01,92,150,2025-12-03 11:19:23,4.8,135.8
732051,2 Bridges - Eastbound,San Diego,CA,445.121,3.3,32.926039,-117.18216,MountainBikeRide,11,2025-09-04 13:09:08,2026-06-16 15:31:33,146,234,2025-11-25 14:03:56,19.1,158.8
9254160,PQ Falls to Salix,San Diego,California,1281.0,0.6,32.928935,-117.175589,MountainBikeRide,11,2025-09-04 13:13:39,2026-06-16 15:36:59,254,340,2026-06-01 15:44:34,1.1,139.7
41655842,Run Salix out to PV,San Diego,California,566.0,3.4,32.937484,-117.157058,Run,11,2025-09-18 09:54:23,2026-06-20 12:02:59,202,326,2025-10-13 14:01:35,10.8,160.3
8429293,?,San Diego,California,181.1,0.3,32.930363,-117.176575,MountainBikeRide,11,2025-10-24 13:47:12,2026-06-16 14:57:56,36,60,2026-05-18 15:18:50,-1.3,144.9
1573579,East of Lower Cobbles Up ,San Diego,CA,429.129,2.9,32.9303079564431,-117.17599304403846,MountainBikeRide,11,2025-10-24 13:47:16,2026-06-16 14:58:00,112,154,2026-05-18 15:18:54,-0.7,152.5
8468966,Hydroplane,San Diego,California,116.3,-1.0,32.934032,-117.17705,MountainBikeRide,11,2025-10-24 13:49:42,2026-06-16 15:00:19,30,302,2025-12-03 11:00:34,39.2,142.6
9531701,Track Lap (Starting at 100M starting line),San Diego,California,412.0,0.0,32.965292,-117.149806,Run,11,2025-11-02 08:12:57,2025-11-02 08:39:25,107,360,2025-11-02 08:30:09,14.3,155.4
3800781,drop-n-slide,San Diego,CA,293.23,0.6,32.930199075490236,-117.17638925649226,MountainBikeRide,10,2025-09-16 14:09:58,2026-05-18 15:47:42,62,89,2025-12-03 11:21:37,1.3,142.0
25390274,T1,San Diego,California,687.3,1.7,32.95533,-117.161004,MountainBikeRide,10,2025-11-04 15:19:08,2026-06-18 14:57:45,249,372,2026-04-01 15:20:17,3.2,137.6
32831428,Barrel Roll,San Diego,California,520.7,-4.8,32.948213,-117.149242,MountainBikeRide,10,2026-01-23 14:24:52,2026-06-18 15:09:57,90,108,2026-03-16 15:21:41,-2.0,124.2
40848335,Rolling Barrels,San Diego,California,1218.3,-2.7,32.948382,-117.148927,MountainBikeRide,10,2026-01-23 14:25:13,2026-06-18 15:10:14,196,230,2026-01-28 12:37:14,-1.5,128.0
40636500,Cables (Running),San Diego,California,713.6,5.0,32.938932,-117.168962,Run,9,2025-08-03 08:24:04,2026-05-10 10:05:10,261,318,2025-12-13 10:30:37,1.5,160.2
12788329,PQ Falls Upper N to Celata Up,San Diego,California,1217.3,0.6,32.930111,-117.173969,Run,9,2025-08-17 09:14:21,2026-05-02 08:09:56,348,409,2025-10-13 13:51:50,1.7,160.1
9254243,Side Hill to PQ Falls,San Diego,California,1512.2,1.4,32.921598,-117.190378,MountainBikeRide,9,2025-09-23 16:23:14,2026-06-16 15:28:02,376,497,2025-10-24 14:16:51,8.3,149.6
26113218,We are currently assisting other customers. Your call will be answered in the order in which it was received,Natick,Massachusetts,163.4,7.0,42.293266,-71.340153,Run,8,2024-10-21 11:55:37,2025-04-14 12:28:38,60,75,2025-01-09 14:41:07,-0.7,162.1
23747961,NoFcks Cobbles DH,San Diego,California,1435.9,-4.6,32.939595,-117.182315,MountainBikeRide,8,2025-09-16 14:04:00,2026-05-18 15:43:04,284,400,2026-05-18 15:43:04,9.8,127.3
15535765,Cobbles DH,,,997.7,-5.1,32.938932,-117.182518,MountainBikeRide,8,2025-09-16 14:04:08,2026-05-18 15:43:09,165,231,2025-12-03 11:16:33,4.8,123.1
16010282,Cobbles downhill,San Diego,California,507.1,-7.1,32.939392,-117.181512,MountainBikeRide,8,2025-09-16 14:04:26,2026-05-18 15:43:23,79,110,2026-04-22 16:35:43,-3.3,119.0
18086066,Sidehill Bottom,San Diego,California,417.2,-11.5,32.924031,-117.192907,MountainBikeRide,8,2025-09-23 16:19:00,2026-06-16 15:25:07,52,199,2026-04-13 13:58:59,-0.9,128.5
2502500,Darkwood Lite (Park Village Rd to Y),San Diego,CA,807.011,1.5,32.94055860853334,-117.14933078137754,MountainBikeRide,8,2026-02-03 13:34:05,2026-06-18 14:21:11,164,201,2026-02-25 16:05:47,7.2,130.1
36527915,Barrel Burner,San Diego,California,1345.6,2.2,32.94062,-117.149315,MountainBikeRide,8,2026-02-03 13:34:07,2026-06-18 14:21:11,336,411,2026-02-25 16:05:47,13.1,142.7
32866646,Barrel Roll - Reverse,San Diego,California,518.0,5.1,32.947165,-117.146766,MountainBikeRide,8,2026-02-03 13:37:01,2026-06-18 14:24:36,169,212,2026-02-09 12:45:23,5.2,155.2
4449292,Intuit ST to Creek DH,San Diego,CA,825.6,-3.5,32.956581,-117.153336,MountainBikeRide,8,2026-02-03 13:44:32,2026-06-18 14:34:21,193,296,2026-06-18 14:34:21,-15.1,134.3
27790658,test seg,San Diego,California,460.1,-1.2,32.957185,-117.154953,MountainBikeRide,8,2026-02-03 13:45:00,2026-06-18 14:34:47,90,127,2026-03-04 14:19:03,1.4,136.5
10713109,Outofit DH,San Diego,California,286.8,-8.9,32.956276,-117.158371,MountainBikeRide,8,2026-02-03 13:46:50,2026-06-18 14:36:25,66,137,2026-06-18 14:36:25,-10.8,136.8
26289911,Minuteman Maple to Bow,Lexington,Massachusetts,1616.9,-0.3,42.435542,-71.208962,Run,7,2024-10-16 12:14:33,2025-06-28 17:24:22,490,623,2025-05-16 11:25:34,10.3,155.0
22576779,Fork to Fork Puddle Dodge,San Diego,California,1360.7,-0.5,32.937816,-117.1546,"Run,TrailRun",7,2025-05-02 13:11:44,2025-10-30 15:12:30,428,521,2025-07-21 08:37:51,2.5,148.3
2638405,AGM Loop Effort 1,Lexington,MA,330.943,1.1,42.42636517159867,-71.19498347870186,Run,7,2024-10-16 11:42:31,2025-04-23 11:47:03,82,110,2024-11-22 11:44:24,3.4,153.6
17013580,Bacon from Park to Walnut,Natick,Massachusetts,820.7,-0.0,42.297115,-71.355637,Run,7,2024-10-21 11:47:00,2025-04-14 12:20:56,247,275,2025-04-14 12:20:56,-4.4,161.9
2368346,Preserve Way Trail Westbound,San Diego,CA,944.399,-0.6,32.944435947605356,-117.16954660612826,MountainBikeRide,7,2025-09-23 15:59:23,2026-04-22 16:25:22,186,265,2025-10-06 12:46:52,11.8,145.9
797112,Side Hill Down,San Diego,CA,759.52,-9.1,32.92658002115786,-117.19273916445673,MountainBikeRide,7,2025-09-23 16:18:01,2026-04-13 13:58:13,101,252,2026-04-13 13:58:13,10.3,125.6
22802127,PQ Creek Park Access ,San Diego,California,245.2,4.2,32.93809,-117.154049,Run,6,2025-05-02 13:34:19,2026-04-28 15:14:14,87,104,2025-05-02 13:34:19,3.8,165.7
11010767,The Preserve Way Ridge (WB),San Diego,California,944.7,-0.8,32.944424,-117.169589,Run,6,2025-08-03 08:30:06,2026-05-10 10:11:17,291,312,2025-12-13 10:35:56,-0.3,159.6
12788213,Preserve Terrace to Duck Pond,San Diego,California,1224.9,-0.1,32.943087,-117.173894,Run,6,2025-08-03 08:35:02,2026-05-10 10:16:19,358,445,2026-05-10 10:16:19,-18.5,158.8
17473190,Preserve Way to Toyon,San Diego,California,428.7,-2.3,32.94309,-117.173719,MountainBikeRide,6,2025-09-23 16:03:42,2026-04-22 16:29:23,73,83,2025-10-16 12:51:15,0.1,142.3
5286330,Cobbletop to Side hill Bottom,San Diego,CA,2751.6,-2.8,32.939056,-117.182483,MountainBikeRide,6,2025-09-23 16:08:18,2026-04-13 13:49:44,623,840,2026-04-13 13:49:44,-12.0,137.1
6006730,Bridge to Viewpoint Eastbound,San Diego,CA,501.4,3.6,32.926011,-117.183324,MountainBikeRide,6,2025-10-16 13:21:21,2026-06-16 15:30:48,174,220,2026-01-21 15:40:28,-0.4,159.6
15627551,Tunnel 4 Downhill,San Diego,California,1160.8,-5.7,32.94750782935295,-117.16325571258349,MountainBikeRide,6,2025-10-28 14:21:05,2026-05-14 13:02:09,247,418,2026-01-28 12:15:13,23.8,135.5
10772744,RH Slalom Start,San Diego,California,885.9,-4.7,32.948058,-117.162515,MountainBikeRide,6,2025-12-09 13:45:33,2026-06-18 14:50:32,200,306,2026-04-01 15:13:47,-7.6,133.5
682596,Tunnel DH,San Diego,CA,918.63,-4.4,32.94810541905463,-117.16045559383929,MountainBikeRide,6,2025-12-09 13:46:33,2026-06-18 14:51:34,206,272,2026-04-01 15:14:50,4.6,139.0
36384480,Tree Y/T 1 split ,San Diego,California,562.0,-2.8,32.951165,-117.159808,MountainBikeRide,6,2025-12-09 13:48:32,2026-06-18 14:53:17,125,188,2026-04-01 15:16:26,0.2,143.3
6445288,Lex Town Track,Lexington,MA,422.4,0.0,42.446011,-71.236147,Run,5,2025-05-11 13:21:55,2025-06-13 10:54:22,96,306,2025-06-13 10:49:19,-40.7,160.7
26243551,Munroe Station - Maple St Climb,Lexington,Massachusetts,663.5,0.3,42.440735,-71.213052,Run,5,2024-10-16 12:10:48,2025-05-31 17:15:15,210,232,2025-02-12 12:11:38,-3.2,157.0
31424188,Southside singletrack to Pen Crossing,San Diego,California,748.0,-0.3,32.937096,-117.142388,Run,5,2025-07-24 08:47:22,2026-03-27 08:38:48,243,275,2025-08-20 08:52:23,5.4,154.2
31600171,TSF to Carmel Mtn. Rd,San Diego,California,664.6,1.9,32.956677,-117.153172,Run,5,2025-08-10 08:37:03,2026-01-04 09:04:53,211,237,2025-12-27 09:26:39,0.9,162.5
40391437,CDS Bomb,San Diego,California,1256.3,-3.4,32.950856,-117.151681,Run,5,2025-08-10 08:40:55,2026-01-04 09:08:58,361,398,2025-12-27 09:30:17,-3.1,160.3
17083244,Side Hill to Little Waimea,San Diego,California,1204.0,-1.2,32.919942,-117.192266,"Run,TrailRun",5,2025-08-17 08:42:13,2025-12-07 09:50:26,388,423,2025-08-31 08:07:40,-3.9,156.7
11820789,Appendix Drop,San Diego,California,556.8,-5.2,32.939419,-117.18216,MountainBikeRide,5,2025-09-16 13:53:44,2026-05-18 15:33:46,119,155,2025-12-03 11:07:54,-5.9,122.8
11645242,Cobbles Appendix,San Diego,California,726.9,-2.4,32.938759,-117.18307,MountainBikeRide,5,2025-09-16 13:54:23,2026-05-18 15:34:21,192,254,2025-12-03 11:08:28,-8.2,130.3
5100023,xox 9,San Diego,CA,2168.7,-0.3,32.944473,-117.169502,MountainBikeRide,5,2025-09-23 15:59:21,2026-04-22 16:25:22,445,656,2025-10-06 12:46:49,3.2,139.7
16611259,Cobbles UP FULL,,,902.7,5.2,32.934154,-117.17783,MountainBikeRide,5,2025-10-24 13:50:11,2026-06-16 15:02:45,337,362,2025-10-24 13:50:11,4.1,157.7
32891997,T4 with rim job foreplay,San Diego,California,2021.5,-2.9,32.946039,-117.168298,MountainBikeRide,5,2025-10-28 14:16:16,2026-03-16 15:01:25,427,540,2026-01-28 12:12:04,-23.3,135.8
13413902,Hill-park-to-Elbow,San Diego,California,896.4,6.1,32.971627,-117.117237,MountainBikeRide,5,2025-12-11 13:11:57,2026-05-24 09:24:26,423,541,2026-05-24 09:24:26,-19.5,135.5
9516036,Conversion,San Diego,California,345.0,3.3,32.975181,-117.111088,MountainBikeRide,5,2025-12-11 13:19:15,2026-05-24 09:31:09,174,341,2026-01-08 13:17:08,4.4,142.3
14792557,Quick up T4,San Diego,California,2400.8,1.3,32.956029,-117.15316,MountainBikeRide,5,2026-02-03 13:44:13,2026-06-18 14:34:04,876,998,2026-06-18 14:34:04,-4.9,143.5
663783,Tunnel Climb,San Diego,CA,906.77,5.9,32.95437089167535,-117.16600952669978,MountainBikeRide,5,2026-02-03 13:52:01,2026-06-18 14:41:09,417,461,2026-02-09 13:01:33,8.5,160.4
20282158,Hormel 400,Medford,Massachusetts,401.6,0.0,42.408521,-71.096217,Run,4,2025-06-21 10:16:40,2025-06-21 10:21:30,91,101,2025-06-21 10:16:40,0.7,161.2
1502313,Arlington Track,Arlington,MA,405.26,-0.9,42.419443018734455,-71.16200882010162,Run,4,2025-05-24 09:00:18,2025-05-24 09:25:37,201,976,2025-05-24 09:00:18,102.7,83.7
2980715,Battle Road West (first half),Lexington,MA,3165.92,0.3,42.44739046320319,-71.26479165628552,Run,4,2024-11-29 08:50:11,2025-05-11 08:57:05,1053,1127,2025-05-11 08:57:05,4.8,150.3
36961090,Revere to Smith,Lincoln,Massachusetts,883.8,0.5,42.448993,-71.2796,Run,4,2024-11-29 08:58:11,2025-05-11 09:05:07,290,295,2024-12-07 13:12:33,-0.4,154.6
8715376,Battle Road 800m Sprint,Lincoln,Massachusetts,777.1,0.9,42.450462,-71.289462,Run,4,2024-11-29 09:03:31,2025-05-11 09:10:22,260,279,2025-05-11 09:10:22,-0.5,155.5
9447511,Battle Road Climb,,Massachusetts,633.5,3.3,42.453641,-71.303058,Run,4,2024-11-29 09:21:01,2025-05-11 09:35:33,229,272,2025-05-11 09:35:33,-1.1,155.4
25674528,Battle Road 800m Sprint EB,Lincoln,Massachusetts,788.9,0.0,42.454884,-71.296629,Run,4,2024-11-29 09:26:11,2025-05-11 09:40:22,243,281,2025-05-11 09:40:22,0.5,155.2
10518482,Smith to Revere,Lincoln,Massachusetts,887.5,-0.1,42.450513,-71.288526,Run,4,2024-11-29 09:30:49,2025-05-11 09:44:50,297,330,2024-12-07 13:54:04,-0.3,155.2
25180596,Battle Road Fast Finish,Hanscom Air Force Base,Massachusetts,1631.0,0.1,42.449162,-71.281496,Run,4,2024-11-29 09:35:00,2025-05-11 09:48:49,531,588,2025-05-11 09:48:49,3.4,154.8
2162786,End of run quarter,Lexington,MA,526.225,-0.7,42.45047500360985,-71.27029429196499,Run,4,2024-11-29 09:40:47,2025-05-11 09:54:32,167,186,2024-11-29 09:40:47,2.3,152.4
5229756,Half way down,San Diego,CA,754.2,-6.1,32.944217,-117.169234,MountainBikeRide,4,2025-08-12 14:08:43,2025-11-12 13:37:09,108,159,2025-11-12 13:37:09,-15.9,126.0
22802113,Bridge Bypass ,San Diego,California,459.0,-3.5,32.927385,-117.178761,"Run,TrailRun",4,2025-08-17 08:32:08,2025-10-30 15:27:04,186,196,2025-08-17 08:32:08,0.2,156.8
12695206,PQ Wagon Wheel to Waterfall,San Diego,California,3117.3,1.2,32.91497,-117.202776,"Run,TrailRun",4,2025-08-17 08:49:45,2025-12-07 10:03:25,1184,1324,2025-08-31 08:25:05,-34.2,160.8
17489599,Little Waimea to Side Hill,San Diego,California,1153.8,1.4,32.916013,-117.201775,"Run,TrailRun",4,2025-08-17 08:53:57,2025-12-07 10:04:06,400,524,2025-12-07 10:04:06,3.2,161.3
14858155,Full Appendix CW,,,1124.2,0.3,32.939383,-117.182696,MountainBikeRide,4,2025-09-16 13:53:53,2026-05-18 15:34:32,468,572,2025-12-03 11:08:03,-22.2,141.0
36120975,Appendix Cobbler,San Diego,California,2440.3,-1.8,32.939471,-117.183024,MountainBikeRide,4,2025-09-16 13:53:59,2026-05-18 15:34:36,663,818,2026-01-17 14:13:12,-43.6,137.8
17213599,Up & Out my Appendix,San Diego,California,470.0,6.8,32.94036,-117.186128,MountainBikeRide,4,2025-09-16 13:58:15,2026-05-18 15:37:26,257,289,2025-12-03 11:11:19,-0.5,148.3
6338714,East Deer Canyon  (west),San Diego,CA,446.9,-1.9,32.955324,-117.165003,MountainBikeRide,4,2025-10-28 14:30:30,2026-04-25 14:10:14,127,183,2026-03-04 14:26:38,-3.8,146.4
31590404,Mobil to Park Village TT,San Diego,California,1888.2,-1.4,32.956311,-117.153022,MountainBikeRide,4,2025-11-04 15:31:26,2026-02-09 13:58:08,280,472,2025-12-16 13:36:05,54.8,133.4
40233738,CMR to round about,San Diego,California,977.9,-3.0,32.950718,-117.151888,MountainBikeRide,4,2025-11-04 15:33:33,2026-02-09 14:03:36,114,120,2026-02-09 14:03:36,-0.5,133.2
39441227,CDS Drop,San Diego,California,996.4,-4.2,32.949497,-117.150405,MountainBikeRide,4,2025-11-04 15:34:09,2026-02-09 14:04:12,106,117,2026-02-09 14:04:12,-3.5,128.0
3171205,Lake to top of SH,San Diego,CA,2738.98,1.8,32.93417528271675,-117.17778836376965,MountainBikeRide,4,2025-11-25 13:38:26,2026-06-16 15:02:45,785,894,2025-11-25 13:38:26,27.9,148.4
669981,PQ Cyn Lake to Carmel Mnt. Rd,San Diego,CA,924.28,5.5,32.93447834788804,-117.177797348791,MountainBikeRide,4,2025-11-25 13:38:35,2026-01-23 13:36:44,407,421,2026-01-23 13:36:44,-0.7,153.3
3516567,PQ Crk Park - Canyonside ,San Diego,CA,1045.51,0.6,32.94001176953316,-117.14972256682813,MountainBikeRide,4,2025-12-05 15:20:04,2026-06-02 13:57:57,200,238,2025-12-05 15:20:04,11.3,134.3
4467141,PQ express route,San Diego,CA,604.8,0.7,32.939956,-117.147192,MountainBikeRide,4,2025-12-05 15:20:52,2026-06-02 13:58:58,105,123,2025-12-05 15:20:52,5.1,132.2
1686229,PQ TT Sprint,San Diego,CA,1000.01,-0.2,32.94012827798724,-117.14654071256518,MountainBikeRide,4,2025-12-05 15:21:00,2026-06-02 13:59:10,184,263,2025-12-05 15:21:00,2.4,135.2
6609008,Ridgewood Singletrack,San Diego,CA,1170.5,1.2,32.940523,-117.128784,MountainBikeRide,4,2025-12-05 15:27:29,2026-06-02 14:06:10,266,311,2025-12-05 15:27:29,14.3,146.6
933936,Ridgewood to Black Mountain Road,San Diego,CA,1315.17,-1.2,32.94540342874825,-117.11712316609919,MountainBikeRide,4,2025-12-05 15:33:22,2026-06-02 14:25:52,281,306,2025-12-05 15:33:22,7.9,151.6
15958581,Edge of Heaven,San Diego,California,396.6,1.4,32.977243,-117.109627,MountainBikeRide,4,2025-12-11 13:22:53,2026-05-24 09:34:13,137,178,2026-03-22 09:13:27,-5.0,146.9
12558278,Chi's Grater,San Diego,California,297.8,8.3,32.955459,-117.160725,MountainBikeRide,4,2025-12-16 13:29:11,2026-03-16 15:11:57,193,223,2026-01-28 12:26:50,-3.0,157.4
1852547, Intuit ST - Eastbound,San Diego,CA,801.25,3.5,32.95559766702354,-117.1607104036957,MountainBikeRide,4,2025-12-16 13:29:20,2026-03-16 15:12:01,360,392,2026-03-16 15:12:01,-10.5,154.5
11387573,SDMBA bypass up,,,456.8,5.3,32.980598,-117.108394,MountainBikeRide,4,2025-12-29 12:30:10,2026-05-24 09:36:37,281,370,2026-01-08 13:22:53,20.7,151.6
15281474,Mystic St-MVP to Old Mystic,Arlington,Massachusetts,1181.1,0.9,42.419982,-71.15214,Run,3,2024-11-24 10:00:31,2025-06-05 06:31:30,363,405,2025-03-30 14:32:20,13.0,148.2
3883979,Minuteman - Grant Street to Four Seasons,Lexington,MA,1269.62,-0.7,42.44762,-71.22488,Run,3,2024-10-16 12:03:52,2025-05-31 17:08:31,395,417,2025-05-31 17:08:31,-6.5,159.8
8691502,Bike Path: Woburn St to Maple,Lexington,Massachusetts,1500.9,-0.0,42.446208,-71.219941,Run,3,2024-10-16 12:06:17,2025-05-31 17:10:47,481,512,2025-05-31 17:10:47,-6.0,158.5
16836185,AHS Track from other side,Arlington,Massachusetts,416.6,-0.0,42.419646,-71.160885,Run,3,2025-05-24 09:01:04,2025-05-24 09:21:56,300,960,2025-05-24 09:01:04,33.5,81.7
21097406,Sports Arena to TraderJoes,,,1260.7,1.1,42.425549,-71.173968,Run,3,2024-11-18 11:28:44,2025-05-05 09:28:01,379,416,2025-04-23 11:30:51,-5.0,157.8
21197328,Hurd Field to Ed Burns Arena,Arlington,Massachusetts,1182.0,-1.2,42.425678,-71.188535,Run,3,2024-11-18 11:35:43,2025-05-05 09:40:44,361,386,2025-03-12 17:15:43,-9.5,163.9
29683791,Bridge to bridge Arlington minuteman bike path ,Arlington,Massachusetts,100.3,-1.1,42.425459,-71.182085,Run,3,2024-11-18 11:38:32,2025-05-05 09:43:25,27,30,2025-03-12 17:18:18,0.5,166.7
14206728,Minuteman East (Mile) - Park to Grove,Arlington,Massachusetts,1671.3,-1.6,42.425438,-71.181981,Run,3,2024-11-18 11:38:34,2025-05-05 09:43:27,495,518,2025-03-12 17:18:20,-9.5,163.1
14705294,Bow Street to Skate Rink,Arlington,Massachusetts,485.8,-1.2,42.425806,-71.178256,Run,3,2024-11-18 11:40:07,2025-05-05 09:44:59,141,153,2025-05-05 09:44:59,-6.0,163.6
14207085,Minuteman East (Mile) - Ryder to Mill,Arlington,Massachusetts,1625.3,-1.1,42.425507,-71.174423,Run,3,2024-11-18 11:41:51,2025-05-05 09:46:35,481,505,2025-03-12 17:21:27,-9.0,161.4
2522183,Hill's Hill to Grove St.,Arlington,MA,821.148,-1.5,42.4243256,-71.1720404,Run,3,2024-11-18 11:43:06,2025-05-05 09:47:44,243,253,2025-03-12 17:22:38,-2.5,161.2
18119162,USPS parking lot from above,Boston,Massachusetts,224.5,0.3,42.348042,-71.045565,Run,3,2025-01-21 17:04:36,2025-01-23 07:40:21,65,76,2025-01-23 07:40:21,-5.5,154.7
2518592,Fiske Hill on Minuteman Trail,Lexington,MA,235.57,5.6,42.448714,-71.261558,Run,3,2024-11-29 09:45:45,2025-01-11 12:58:29,94,99,2024-11-29 09:45:45,0.5,144.4
6340999,Whaleback,Enfield,NH,249.0,-12.4,43.595645,-72.183501,AlpineSki,3,2024-12-28 12:56:56,2024-12-28 13:20:08,54,75,2024-12-28 13:20:08,-10.5,100.8
6344964,Upper Spout,Enfield,NH,140.0,-25.6,43.597487,-72.182416,AlpineSki,3,2024-12-28 12:58:09,2024-12-28 13:21:01,27,34,2024-12-28 13:21:01,-3.5,110.0
6341027,Bougainvillea,Enfield,NH,142.4,-31.8,43.597993,-72.180725,AlpineSki,3,2024-12-28 12:58:44,2024-12-28 13:21:29,18,28,2024-12-28 13:10:19,-3.5,108.5
6341059,Scrimshaw,Enfield,NH,238.7,-18.9,43.599637,-72.17815,AlpineSki,3,2024-12-28 12:59:42,2024-12-28 13:22:18,24,32,2024-12-28 13:10:59,-2.0,118.0
1387457,Power Line Descent,San Diego,CA,1346.87,-5.0,32.944051092521235,-117.1680194233704,MountainBikeRide,3,2025-08-12 14:07:33,2025-10-28 15:03:16,236,326,2025-10-28 15:03:16,-45.0,124.5
21766566,Powerlines 2nd half,San Diego,California,610.6,-3.0,32.93876,-117.169107,MountainBikeRide,3,2025-08-12 14:11:29,2025-10-28 15:05:54,103,121,2025-10-28 15:05:54,-9.0,128.4
40797660,Miner's Downhill,San Diego,California,1744.4,-6.5,32.985011,-117.113653,TrailRun,3,2025-08-15 10:01:15,2026-04-20 15:45:24,655,770,2025-08-15 10:01:15,26.0,147.6
6813831,~~ Camru to Carson's ~~,San Diego,CA,1704.1,-0.8,32.936398,-117.152146,Run,3,2025-08-22 09:25:08,2026-04-18 07:43:07,542,585,2025-08-22 09:25:08,21.5,155.5
27190274,Hill to Finish,San Diego,California,318.1,0.2,32.926563,-117.173899,Run,3,2025-08-22 09:39:23,2026-04-18 07:58:17,111,120,2025-09-12 10:44:08,4.0,163.0
2198770,Run to the Sh*ts DH,San Diego,CA,753.114,-0.9,32.94202191758244,-117.17093749914055,MountainBikeRide,3,2025-09-04 12:50:58,2026-02-13 15:43:49,133,147,2026-02-06 15:34:49,-1.5,145.6
926568,Sh*ts DH,San Diego,CA,501.296,-9.8,32.93696998023375,-117.1746116529368,MountainBikeRide,3,2025-09-04 12:53:25,2026-02-13 15:46:13,126,451,2026-02-06 15:37:02,-161.0,141.3
3536699,Sh*ts Upper Switchbacks,San Diego,CA,148.405,-9.0,32.93595375496236,-117.1747060866255,MountainBikeRide,3,2025-09-04 12:55:18,2026-02-13 15:46:40,37,218,2026-02-06 15:37:32,-89.5,139.0
3536692,Sh*ts Lower Switch Backs,San Diego,CA,205.2,-9.8,32.93466369624523,-117.17495569970195,MountainBikeRide,3,2025-09-04 12:58:56,2026-02-13 15:47:19,50,102,2026-02-06 15:38:09,-24.5,145.2
991790,West Rim Clockwise,San Diego,CA,586.181,-0.0,32.947964272692886,-117.16953699913134,MountainBikeRide,3,2025-09-11 09:57:59,2026-02-09 13:16:24,137,163,2026-02-09 13:16:24,-13.0,140.1
9215704,Canyonside return,San Diego,California,962.2,0.1,32.940071,-117.146305,Run,3,2025-10-09 13:37:39,2026-03-27 08:26:53,321,337,2026-02-11 16:48:02,-3.0,147.0
2501063,PQ Canyonside Warm Up Dash,San Diego,CA,1338.41,-0.3,32.94115048,-117.1358738,Run,3,2025-10-09 14:03:11,2026-06-10 14:26:49,412,497,2026-02-11 16:54:13,9.5,158.1
3373271,Bridges Singletrack Downstream,San Diego,CA,659.188,-2.7,32.9273883,-117.1785596,Run,3,2025-10-26 08:43:38,2026-06-20 11:25:22,223,228,2025-10-26 08:43:38,2.5,153.4
3944956,Deer Canyon Full,San Diego,CA,2343.7,-1.2,32.955088,-117.164583,MountainBikeRide,3,2025-10-28 14:30:14,2026-04-25 14:10:04,769,790,2026-03-04 14:26:22,3.0,145.3
6005490,WDC (flow),San Diego,CA,809.9,-2.5,32.955684,-117.170348,MountainBikeRide,3,2025-10-28 14:35:35,2026-04-25 14:15:48,231,260,2025-10-28 14:35:35,13.0,153.0
6590602,Central Deer Canyon,San Diego,CA,608.7,-1.7,32.955444,-117.173945,MountainBikeRide,3,2025-10-28 14:37:40,2026-04-25 14:17:39,142,188,2026-03-04 14:34:15,18.5,154.8
5681768,Don't fall in,San Diego,CA,167.7,-0.8,32.952432,-117.179619,MountainBikeRide,3,2025-10-28 14:41:52,2026-04-25 14:21:58,23,31,2026-04-25 14:21:58,-4.0,127.0
12307150,Cobbley Appendicitis,San Diego,California,2413.0,1.9,32.930186,-117.176428,MountainBikeRide,3,2025-12-03 10:58:07,2026-05-18 15:18:43,821,1157,2026-01-17 14:02:44,163.0,138.2
2748915,EDC,San Diego,CA,486.94,-0.0,32.95520153827965,-117.16925592161715,MountainBikeRide,3,2025-12-16 13:21:18,2026-02-09 13:43:48,213,262,2026-01-23 14:07:08,-10.0,146.1
17329872,Punchy like an uppercut,San Diego,California,340.5,7.0,32.942303,-117.19133,MountainBikeRide,3,2025-12-21 09:24:33,2026-05-12 14:05:35,115,152,2026-05-12 14:05:35,-18.5,145.7
4232895,Knoll Loop,San Diego,CA,237.8,-0.3,32.98775,-117.135341,MountainBikeRide,3,2026-01-06 14:44:53,2026-03-24 13:20:57,136,165,2026-03-24 13:01:57,-13.0,141.6
3126487,Knoll mini DH,San Diego,CA,696.956,-7.4,32.987992549315095,-117.13509346358478,MountainBikeRide,3,2026-01-06 14:48:26,2026-03-24 13:23:42,275,490,2026-03-24 13:23:42,-107.5,135.4
7567724,2nd half of knoll DH,San Diego,CA,317.6,-3.9,32.986536,-117.137716,MountainBikeRide,3,2026-01-06 14:55:21,2026-03-24 13:27:29,94,137,2026-03-24 13:27:29,-21.5,139.6
1676279,Trader Joe's Hill,Lexington,MA,562.749,5.8,42.42511622611659,-71.18852220482303,"MountainBikeRide,Ride",2,2024-11-06 11:50:51,2025-06-20 10:21:39,167,220,2025-06-20 10:21:39,-53.0,144.9
8103095,Dundee Rd Hill,Arlington,Massachusetts,233.1,8.5,42.425033,-71.188672,"MountainBikeRide,Ride",2,2024-11-06 11:50:57,2025-06-20 10:21:41,82,107,2025-06-20 10:21:41,-25.0,147.2
34498688,CRC 600,Cambridge,Massachusetts,613.1,0.3,42.383126,-71.144897,Run,2,2024-11-20 12:08:10,2025-06-18 12:27:30,186,187,2025-06-18 12:27:30,-1.0,145.4
3960323,"3/4 Fresh Pond, enter Huron, exit Concord",Cambridge,MA,2690.6,-0.1,42.380935,-71.145571,Run,2,2024-11-20 12:11:18,2025-06-18 12:30:38,847,865,2025-06-18 12:30:38,-18.0,149.8
35853645,Dirt Trail at South Fresh Pond,Cambridge,Massachusetts,681.1,0.2,42.379754,-71.147227,Run,2,2024-11-20 12:12:19,2025-06-18 12:31:38,209,215,2025-06-18 12:31:38,-6.0,149.1
8334532,Fresh Pond pickup 1 (golf to water fountain),Belmont,Massachusetts,738.0,-0.1,42.381667,-71.153536,Run,2,2024-11-20 12:15:46,2025-06-18 12:35:00,235,240,2025-06-18 12:35:00,-5.0,148.4
38468326,little fresh pond to fork,Cambridge,Massachusetts,1249.0,-0.3,42.384217,-71.155228,Run,2,2024-11-20 12:17:30,2025-06-18 12:36:42,393,402,2025-06-18 12:36:42,-9.0,150.0
13662485,Lily-livered,,,184.4,0.1,42.384397,-71.15513,Run,2,2024-11-20 12:17:38,2025-06-18 12:36:48,60,61,2024-11-20 12:17:38,1.0,147.7
23571256,MVP Rotary to Mill Brook bridge,Arlington,Massachusetts,627.4,-0.1,42.420568,-71.143267,Run,2,2024-11-24 10:41:03,2025-06-05 06:25:29,207,211,2025-06-05 06:25:29,-4.0,155.7
15281452,MVP Rotary to Mystic St.,Arlington,Massachusetts,1047.4,0.6,42.420746,-71.143296,Run,2,2024-11-24 10:41:07,2025-06-05 06:25:34,356,368,2025-06-05 06:25:34,-12.0,155.1
11962588,Whipple Hill - New Summit Approach From South,Winchester,Massachusetts,331.0,6.9,42.440418,-71.183517,"Run,TrailRun",2,2025-04-02 11:45:32,2025-06-03 11:35:14,151,163,2025-06-03 11:35:14,-12.0,160.7
11962538,Backside of Whipple Hill,Winchester,Massachusetts,700.4,-1.0,42.440107,-71.179098,"Run,TrailRun",2,2024-11-11 10:47:46,2025-06-03 11:48:52,263,336,2025-06-03 11:48:52,-73.0,163.6
18906716,Waldorf to Seasons Four,,,1286.5,0.2,42.430946,-71.204906,Run,2,2025-04-04 14:15:35,2025-05-31 16:52:12,405,410,2025-04-04 14:15:35,5.0,162.8
22295663,Lexington Center,Lexington,Massachusetts,470.0,0.8,42.446861,-71.222219,Run,2,2024-12-22 10:24:07,2025-05-31 17:04:44,152,165,2025-05-31 17:04:44,-13.0,159.8
19276695,BRT Hill Sprint,,,179.2,5.8,42.45545,-71.313654,Run,2,2024-12-07 13:38:25,2025-05-11 09:30:12,62,68,2025-05-11 09:30:12,-6.0,162.4
5186369,Bike Path: Mill Street to Park Ave (Gold's Gym exit),Arlington,MA,2261.2,1.1,42.418531,-71.15754,Run,2,2024-11-18 11:20:03,2025-05-05 09:19:20,735,739,2025-05-05 09:19:20,-4.0,157.8
5835480,Bike Path Mill to Grove,Arlington,MA,559.7,0.5,42.418606,-71.157504,Run,2,2024-11-18 11:20:04,2025-05-05 09:19:21,181,183,2024-11-18 11:20:04,2.0,158.5
29683935,Mal’s to Bow,Lexington,Massachusetts,181.5,1.0,42.425971,-71.19226,Run,2,2025-03-01 09:34:15,2025-05-05 09:36:14,54,60,2025-03-01 09:34:15,6.0,157.6
4805564,PowerLines to PV Dash,San Diego,CA,1329.7,0.4,32.933859,-117.167801,Run,2,2025-05-02 13:26:06,2025-12-13 11:01:26,457,464,2025-12-13 11:01:26,-7.0,158.1
1655582,Beaver Brook C,Lexington,MA,1919.83,2.2,42.4060709,-71.2079679,"Run,TrailRun",2,2024-12-31 11:04:57,2025-04-25 10:34:13,704,707,2025-04-25 10:34:13,-3.0,160.8
9366510,Beaver Brook on Greenway (Westbound),Lexington,Massachusetts,991.4,1.8,42.409111,-71.21097,"Run,TrailRun",2,2024-12-31 11:07:41,2025-04-25 10:37:02,380,381,2025-04-25 10:37:02,-1.0,160.8
1708635,Beaver Brook on Greenway,Lexington,MA,1101.23,-0.6,42.4103078,-71.2195922,"Run,TrailRun",2,2024-12-31 12:19:04,2025-04-25 10:48:10,359,373,2025-04-25 10:48:10,-14.0,163.5
1932693,Great Meadows to Seasons Four,Lexington,MA,1939.87,0.2,42.427623716666666,-71.19855695,Run,2,2024-10-16 11:44:14,2025-04-20 17:29:49,607,640,2025-04-20 17:29:49,-33.0,151.8
26827817,30 foot warm up,Wellesley,Massachusetts,425.4,2.0,42.294699,-71.319878,Run,2,2025-01-29 11:35:57,2025-04-14 12:42:34,142,151,2025-01-29 11:35:57,9.0,162.2
11532207,Bacon Street Steep Part,,,252.5,5.5,42.294262,-71.328755,Run,2,2025-01-29 11:40:02,2025-04-14 12:46:42,103,106,2025-04-14 12:46:42,-3.0,162.5
7779026,"Bacon Street climb, Oak-Marion",Natick,MA,725.2,3.5,42.294013,-71.328984,Run,2,2025-01-29 11:40:14,2025-04-14 12:46:53,264,274,2025-04-14 12:46:53,-10.0,164.1
7281594,Upper Mystic Lake - Route 3,Arlington,MA,1512.6,-0.8,42.430385,-71.153896,Run,2,2024-11-24 10:07:24,2025-03-30 14:38:56,472,473,2025-03-30 14:38:56,-1.0,158.2
15281417,Upper Mystic Lake full,,,1810.2,0.4,42.434788,-71.155821,Run,2,2024-11-24 10:09:59,2025-03-30 14:41:33,583,594,2025-03-30 14:41:33,-11.0,160.7
953936,Mystic East Trail,Winchester,MA,3042.58,-0.1,42.4451217,-71.1409045,Run,2,2024-11-24 10:21:42,2025-03-30 14:52:58,1008,1144,2025-03-30 14:52:58,-136.0,160.2
12961691,Mystic Valley Parkway - Lower Mystic Lake southbound,Medford,Massachusetts,1147.5,-0.1,42.430237,-71.14556,Run,2,2024-11-24 10:34:18,2025-03-30 15:03:32,358,371,2025-03-30 15:03:32,-13.0,166.9
33584923,White Out,Shrewsbury,Massachusetts,322.3,-16.0,42.298477,-71.681225,AlpineSki,2,2025-01-20 13:18:27,2025-01-28 18:20:19,162,629,2025-01-28 18:20:19,-467.0,88.5
9186007,Summer St. - A St. to Dorchester Ave.,Boston,Massachusetts,370.8,-0.6,42.34977,-71.048958,Run,2,2025-01-22 06:37:23,2025-01-23 07:42:03,114,117,2025-01-22 06:37:23,3.0,159.2
2508185,Fiske Hill on Minuteman Trail,Lexington,MA,428.602,4.8,42.448026,-71.263376,Run,2,2024-11-29 09:44:38,2025-01-11 12:57:34,173,182,2025-01-11 12:57:34,-9.0,135.6
12116489,Battle Road: Wood St to Marret St,Lexington,Massachusetts,1498.6,-0.2,42.447794,-71.256151,Run,2,2024-11-29 08:44:47,2024-12-07 12:59:47,481,511,2024-12-07 12:59:47,-30.0,139.2
11157333,Wetland Sprint,Midland,Michigan,131.7,0.3,43.681534,-84.264414,Run,2,2025-07-02 08:39:01,2025-07-04 08:14:05,43,44,2025-07-04 08:14:05,-1.0,154.8
16886006,PQ Canyon Common trial to big sign,San Diego,California,2462.7,-0.5,32.937804,-117.154607,Run,2,2025-07-21 08:37:51,2025-09-14 07:57:38,779,798,2025-07-21 08:37:51,19.0,151.2
8968524,PQ Canyon - CDS to Powerline,San Diego,California,1399.5,-0.5,32.936971,-117.152489,Run,2,2025-07-29 08:06:11,2026-02-02 14:25:44,445,449,2025-07-29 08:06:11,4.0,152.5
813623,Park Village Rd Climb,San Diego,CA,839.249,6.4,32.9405890341846,-117.1696396145948,Run,2,2025-08-10 08:05:28,2025-10-22 13:47:57,360,383,2025-08-10 08:05:28,23.0,163.8
25052736,Tunnel 4 DH,San Diego,California,1358.1,-3.7,32.947383,-117.16313,Run,2,2025-08-10 08:17:08,2025-10-22 13:57:25,518,526,2025-08-10 08:17:08,8.0,159.1
24532363,Heartbreak Hill,San Diego,California,109.7,20.1,32.982372,-117.112213,TrailRun,2,2025-08-15 09:36:02,2025-09-07 08:46:40,79,121,2025-08-15 09:36:02,42.0,153.8
12258142,Upper Service Road: Nighthawk to Towers,San Diego,California,1073.2,7.8,32.981705,-117.11292,TrailRun,2,2025-08-15 09:38:24,2025-09-07 08:48:46,472,860,2025-08-15 09:38:24,388.0,149.9
2160946,Laurentian Dr Climb,San Diego,CA,563.327,8.2,32.9795913,-117.1157847,TrailRun,2,2025-08-15 09:41:25,2025-09-07 08:53:01,276,626,2025-08-15 09:41:25,350.0,148.2
5835967,Hilltop to Fork,San Diego,CA,904.1,5.8,32.971344,-117.117537,TrailRun,2,2025-08-28 09:33:22,2025-09-07 08:27:38,476,503,2025-09-07 08:27:38,-27.0,140.2
31080461,Nighthawk Trail First Hill,San Diego,California,242.5,14.8,32.971161,-117.117335,TrailRun,2,2025-08-28 09:34:41,2025-09-07 08:27:25,141,184,2025-08-28 09:34:41,43.0,134.0
3953669,Mesa Flat Top,San Diego,CA,840.4,-0.3,32.945639,-117.164065,MountainBikeRide,2,2025-09-11 09:47:17,2025-11-12 13:20:46,185,213,2025-11-12 13:20:46,-28.0,136.2
24551310,West Rim Lookout ST CW,San Diego,California,1312.2,0.2,32.951369,-117.168905,MountainBikeRide,2,2025-09-11 09:51:07,2025-11-12 13:24:35,329,554,2025-11-12 13:24:35,-225.0,127.7
4547071,Lookout Point Trail S,San Diego,CA,646.1,0.0,32.95138,-117.168773,MountainBikeRide,2,2025-09-11 09:51:12,2025-11-12 13:24:37,124,143,2025-11-12 13:24:37,-19.0,128.5
22182494,Rim Job – Lapping Clockwise,San Diego,California,1171.6,-0.0,32.948075,-117.169289,MountainBikeRide,2,2025-09-11 09:57:54,2025-11-12 13:27:53,289,365,2025-11-12 13:27:53,-76.0,131.8
18973738,The sun may rise in the East but it sets in the West,San Diego,California,6534.6,-0.3,32.93381,-117.167931,MountainBikeRide,2,2025-09-23 15:51:16,2026-01-21 15:07:27,1718,1742,2026-01-21 15:07:27,-24.0,140.1
1179888,Side Hill to Power Line ,San Diego,CA,2755.37,0.8,32.92070473333333,-117.1916129,MountainBikeRide,2,2025-09-23 16:22:45,2026-03-02 14:50:57,616,724,2026-03-02 14:50:57,-108.0,144.1
13279012,Waterfall to Wagon Wheel Crossing,San Diego,California,3012.0,-1.1,32.927756,-117.177421,Run,2,2025-10-26 08:42:59,2025-12-07 09:40:28,997,1018,2025-12-07 09:40:28,-21.0,154.7
14169592,zags to trees sprint,San Diego,California,1216.2,0.2,32.949476,-117.172977,MountainBikeRide,2,2025-10-28 14:57:00,2025-11-12 13:31:14,234,261,2025-11-12 13:31:14,-27.0,144.1
22766982,Throw your small chainring away!,San Diego,California,1304.8,0.2,32.942913,-117.18264,MountainBikeRide,2,2025-11-04 14:58:59,2026-02-13 15:39:30,244,257,2025-11-04 14:58:59,13.0,139.9
1136526,Rancho Toyon Sprint,San Diego,CA,722.373,0.4,32.94311,-117.18174,MountainBikeRide,2,2025-11-04 14:59:16,2026-02-13 15:39:42,135,137,2025-11-04 14:59:16,2.0,139.9
7626788,Preserve Sprint,San Diego,CA,378.2,2.0,32.943257,-117.177773,MountainBikeRide,2,2025-11-04 15:00:15,2026-02-13 15:40:34,80,88,2025-11-04 15:00:15,8.0,144.6
39759043,Carmel to Merge,San Diego,California,366.5,-1.3,32.951154,-117.151951,Run,2,2025-11-17 16:14:49,2026-01-04 08:31:39,117,121,2025-11-17 16:14:49,4.0,150.2
2910539,PV-Rumex dash,San Diego,CA,1247.45,3.4,32.940204,-117.14998,Run,2,2025-11-21 15:45:38,2025-12-27 08:54:06,442,446,2025-12-27 08:54:06,-4.0,146.8
27190299,Waterfall home 1st mile,San Diego,California,1677.3,0.2,32.926486,-117.176811,Run,2,2025-11-24 11:41:28,2026-01-26 11:16:37,594,621,2026-01-26 11:16:37,-27.0,160.9
14011389,Careless Whisper,San Diego,California,2572.3,-0.0,32.980733,-117.104096,MountainBikeRide,2,2025-12-11 13:33:20,2025-12-29 12:08:47,1072,1072,2025-12-11 13:33:20,0.0,151.2
11597777,"No Shirt, No Shoes...",San Diego,California,213.1,3.9,32.980713,-117.104065,MountainBikeRide,2,2025-12-11 13:33:23,2025-12-29 12:08:47,82,90,2025-12-29 12:08:47,-8.0,142.4
22280631,Learning about Cuba and having some food,San Diego,California,520.3,-1.2,32.97958,-117.10221,MountainBikeRide,2,2025-12-11 13:34:53,2025-12-29 12:10:09,191,205,2025-12-11 13:34:53,14.0,146.8
11475668,Punji Sticks,San Diego,California,294.4,-2.2,32.978006,-117.101983,MountainBikeRide,2,2025-12-11 13:36:48,2025-12-29 12:12:23,68,70,2025-12-29 12:12:23,-2.0,145.9
11597788,No Dice!,San Diego,California,196.4,-9.3,32.97962,-117.10212,MountainBikeRide,2,2025-12-11 13:37:33,2025-12-29 12:13:07,59,65,2025-12-29 12:13:07,-6.0,145.8
12883689,Learn it. Know it. Live it.,San Diego,California,644.0,1.3,32.980035,-117.100234,MountainBikeRide,2,2025-12-11 13:38:42,2025-12-29 12:14:13,284,294,2025-12-11 13:38:42,10.0,156.9
22183071,Jam with The Stones,San Diego,California,979.0,-0.0,32.985316,-117.100266,MountainBikeRide,2,2025-12-11 13:43:44,2025-12-29 12:19:23,423,438,2025-12-29 12:19:23,-15.0,152.2
4528968,Around the Outside of Anderson Ridge Pl,San Diego,CA,375.5,-0.8,32.943613,-117.195654,MountainBikeRide,2,2025-12-21 09:29:08,2026-01-23 13:50:08,90,183,2026-01-23 13:50:08,-93.0,124.8
14699165,Nighthawk -  Hilltop park,San Diego,California,1786.3,-5.9,32.981414,-117.110793,MountainBikeRide,2,2025-12-29 12:35:31,2026-03-22 09:30:30,509,657,2025-12-29 12:35:31,148.0,141.0
10925815,Nighthawk down,San Diego,California,727.2,-10.2,32.979453,-117.110858,MountainBikeRide,2,2025-12-29 12:36:54,2026-03-22 09:32:40,210,272,2025-12-29 12:36:54,62.0,136.2
9177810,Rockyroad Singletrack,San Diego,California,709.3,3.1,32.985394,-117.13496,MountainBikeRide,2,2026-01-06 14:57:40,2026-03-24 13:29:54,246,336,2026-03-24 13:29:54,-90.0,152.1
7712267,DnQ Git'r Done,San Diego,CA,508.1,2.2,32.988265,-117.132777,MountainBikeRide,2,2026-01-06 15:01:10,2026-03-24 13:32:42,141,296,2026-03-24 13:32:42,-155.0,148.3
41024164,About Time,San Diego,California,699.8,4.2,32.981595,-117.110838,MountainBikeRide,2,2026-01-08 13:28:07,2026-05-24 09:42:47,472,517,2026-05-24 09:42:47,-45.0,149.4
36755403,Jay's way,San Diego,California,730.8,8.7,32.984085,-117.113869,MountainBikeRide,2,2026-01-08 13:32:27,2026-05-24 09:46:55,466,503,2026-05-24 09:46:55,-37.0,157.6
9426667,Miner's top to single track start,San Diego,California,495.7,8.6,32.981748,-117.113004,MountainBikeRide,2,2026-01-08 13:35:11,2026-05-24 09:49:39,302,339,2026-05-24 09:49:39,-37.0,156.6
19434951,scarflow?,San Diego,California,370.7,-8.9,32.978854,-117.117422,MountainBikeRide,2,2026-01-08 13:45:12,2026-05-24 10:08:23,238,240,2026-05-24 10:08:23,-2.0,135.1
40761070,Sucks to your ass-mar!,San Diego,California,1265.1,-1.9,32.941423,-117.182953,MountainBikeRide,2,2026-01-23 13:45:02,2026-05-12 14:03:20,261,291,2026-01-23 13:45:02,30.0,136.8
3761788,the edgeway,San Diego,CA,598.54,1.2,32.949562445282936,-117.18297248706222,MountainBikeRide,2,2026-01-23 13:56:48,2026-02-09 13:26:25,123,129,2026-02-09 13:26:25,-6.0,137.4
1400550,Rigdon Deer Cayon singletrack,San Diego,CA,1730.89,1.5,32.949646431952715,-117.18294164165854,MountainBikeRide,2,2026-01-23 13:56:50,2026-02-09 13:26:28,596,1025,2026-01-23 13:56:50,429.0,143.8
6040719,Up West Dear Canyon,San Diego,CA,1093.1,1.7,32.951152,-117.182123,MountainBikeRide,2,2026-01-23 13:57:27,2026-02-09 13:27:06,299,319,2026-01-23 13:57:27,20.0,148.9
2259231,Grave Yard (eastbound),San Diego,CA,1840.48,1.3,32.9534629639545,-117.17886351059859,MountainBikeRide,2,2026-01-23 13:59:18,2026-02-09 13:28:51,728,1218,2026-01-23 13:59:18,490.0,145.2
1913799,shts dh long,San Diego,CA,1318.28,-4.2,32.94188906438649,-117.17092056758702,MountainBikeRide,2,2026-02-06 15:34:51,2026-02-13 15:43:52,272,284,2026-02-06 15:34:51,12.0,147.1
3800913,Chutes to Valley DH,San Diego,CA,1274.72,-5.0,32.93650075793266,-117.17468085698783,MountainBikeRide,2,2026-02-06 15:37:14,2026-02-13 15:46:23,301,307,2026-02-06 15:37:14,6.0,145.1
8304188,Last Set O Chutes,San Diego,California,111.7,-14.7,32.934007,-117.175657,MountainBikeRide,2,2026-02-06 15:38:27,2026-02-13 15:47:38,35,37,2026-02-06 15:38:27,2.0,148.7
3189583,CDS (Planned) Trail to East Deer Canyon Start,San Diego,CA,322.235,-5.3,32.953248179703586,-117.1529447163999,MountainBikeRide,2,2026-02-25 16:14:55,2026-04-15 15:09:35,49,61,2026-02-25 16:14:55,12.0,125.4
19188555,Nice curves Mrs. Del Vino,,,1691.1,-0.2,32.935439,-117.181862,MountainBikeRide,2,2026-03-02 14:39:21,2026-06-16 15:12:27,439,456,2026-03-02 14:39:21,17.0,143.7
7526814,Salmon to 15,San Diego,CA,946.7,1.0,32.943516,-117.117035,MountainBikeRide,2,2026-03-31 14:13:07,2026-06-02 14:14:00,264,305,2026-06-02 14:14:00,-41.0,141.6
1510466,Trans County to North Side Singletrack,San Diego,CA,2501.08,-0.8,32.9437449016,-117.107616663,MountainBikeRide,2,2026-03-31 14:20:34,2026-06-02 14:20:10,660,725,2026-06-02 14:20:10,-65.0,137.3
4519163,Trans County - Cara Way to Crossing,San Diego,CA,1051.5,-1.1,32.943926,-117.107489,MountainBikeRide,2,2026-03-31 14:20:40,2026-06-02 14:20:07,248,308,2026-06-02 14:20:07,-60.0,128.2
15355021,Post-climb Joy!,Seattle,Washington,380.8,0.8,47.683974,-122.312213,Run,2,2026-04-07 08:47:18,2026-04-08 09:17:38,136,136,2026-04-07 08:47:18,0.0,162.4
6143820,Nicod Street Climb,Lexington,MA,429.5,9.7,42.425382,-71.192446,Run,1,2025-06-28 17:36:08,2025-06-28 17:36:08,219,219,2025-06-28 17:36:08,,158.9
13834398,Mystic River Sprint,Medford,Massachusetts,525.3,0.2,42.407247,-71.097376,Run,1,2025-06-21 09:34:01,2025-06-21 09:34:01,166,166,2025-06-21 09:34:01,,148.3
30506087,Mill to Lowell,Arlington,Massachusetts,1819.9,1.1,42.416549,-71.158189,Ride,1,2025-06-20 10:11:00,2025-06-20 10:11:00,415,415,2025-06-20 10:11:00,,109.6
31245108,to Lowell,Arlington,Massachusetts,1059.2,1.4,42.418798,-71.166783,Ride,1,2025-06-20 10:14:26,2025-06-20 10:14:26,209,209,2025-06-20 10:14:26,,120.1
16259165,Hobbs to Davis,Arlington,Massachusetts,854.8,2.0,42.421833,-71.172433,Ride,1,2025-06-20 10:16:15,2025-06-20 10:16:15,196,196,2025-06-20 10:16:15,,127.6
1712149,Baldface St Climb,Chatham,NH,1166.85,5.1,44.23819505609572,-71.01625909097493,Hike,1,2025-06-15 08:12:23,2025-06-15 08:12:23,1019,1019,2025-06-15 08:12:23,,108.4
18937567,Last Drag to South Baldface,Chatham,New Hampshire,786.1,19.4,44.232681,-71.06923,Hike,1,2025-06-15 10:20:17,2025-06-15 10:20:17,1528,1528,2025-06-15 10:20:17,,124.3
1425579,Wild River Trail Climb,Jackson,NH,580.96,16.2,44.23860392533243,-71.08551733195782,Hike,1,2025-06-15 11:08:10,2025-06-15 11:08:10,781,781,2025-06-15 11:08:10,,142.6
25298377,Lex Track 1 Mile,Lexington,Massachusetts,1677.1,0.0,42.446012,-71.23614,Run,1,2025-06-13 10:49:41,2025-06-13 10:49:41,381,381,2025-06-13 10:49:41,,172.5
7102705,Forest St to Grove St,Arlington,MA,962.2,-1.0,42.423551,-71.175056,Run,1,2025-06-09 16:53:11,2025-06-09 16:53:11,271,271,2025-06-09 16:53:11,,160.0
5581424,Brattle to Mill,Arlington,MA,1136.4,-0.9,42.420382,-71.170025,Run,1,2025-06-09 16:55:47,2025-06-09 16:55:47,359,359,2025-06-09 16:55:47,,160.6
17870494,Final stretch of the Great Hill,New York,New York,174.7,8.0,40.798706,-73.958649,Run,1,2025-06-07 16:38:39,2025-06-07 16:38:39,70,70,2025-06-07 16:38:39,,164.2
12307026,W100 to 97 uphill sprint,New York,New York,137.7,3.8,40.793034,-73.961692,Run,1,2025-06-07 16:45:03,2025-06-07 16:45:03,117,117,2025-06-07 16:45:03,,157.4
13894774,300 west 96 southbound,New York,New York,269.1,0.6,40.791353,-73.962702,Run,1,2025-06-07 16:47:18,2025-06-07 16:47:18,85,85,2025-06-07 16:47:18,,159.6
10431265,Columbia 1k out,New York,New York,1016.2,-0.3,40.788527,-73.964698,Run,1,2025-06-07 16:49:29,2025-06-07 16:49:29,314,314,2025-06-07 16:49:29,,164.6
10584809,Columbia Mile out,New York,New York,1592.6,0.0,40.788497,-73.964644,Run,1,2025-06-07 16:49:30,2025-06-07 16:49:30,492,492,2025-06-07 16:49:30,,165.1
9427922,Reservoir West: Sprint South,New York,New York,263.0,0.0,40.787358,-73.96629,Run,1,2025-06-07 16:50:39,2025-06-07 16:50:39,80,80,2025-06-07 16:50:39,,162.0
19554325,SPRINT!,,,423.0,0.2,40.78554,-73.966693,Run,1,2025-06-07 16:51:43,2025-06-07 16:51:43,134,134,2025-06-07 16:51:43,,164.1
18879910,CPTC 1K,New York,New York,963.8,-0.1,40.785022,-73.966829,Run,1,2025-06-07 16:52:00,2025-06-07 16:52:00,288,288,2025-06-07 16:52:00,,165.2
7622762,Reservoir Bridges - Eastbound,New York,NY,496.1,-0.9,40.784618,-73.966513,Run,1,2025-06-07 16:52:13,2025-06-07 16:52:13,151,151,2025-06-07 16:52:13,,165.1
3226157,Final Quarter,New York,NY,465.387,0.7,40.7818137,-73.9623282,Run,1,2025-06-07 16:54:49,2025-06-07 16:54:49,136,136,2025-06-07 16:54:49,,165.8
2850977,Reservoir Bridle Path - Finishing Straight,New York,NY,214.561,-0.1,40.782174,-73.961066,Run,1,2025-06-07 16:55:24,2025-06-07 16:55:24,66,66,2025-06-07 16:55:24,,164.9
17240339,East Drive SPRINT,New York,New York,548.0,0.3,40.781964,-73.960613,Run,1,2025-06-07 16:55:28,2025-06-07 16:55:28,167,167,2025-06-07 16:55:28,,166.5
38735748,Central Park Segment,Manhattan,New York,587.0,-0.2,40.782167,-73.960694,Run,1,2025-06-07 16:55:32,2025-06-07 16:55:32,179,179,2025-06-07 16:55:32,,166.8
31463146,Reservoir First Quarter Mile,New York,New York,424.7,0.0,40.784379,-73.95933,Run,1,2025-06-07 16:56:53,2025-06-07 16:56:53,140,140,2025-06-07 16:56:53,,166.8
9246862,Harlem Hill Counterclockwise,New York,New York,597.4,-2.6,40.794981,-73.954084,Run,1,2025-06-07 17:07:46,2025-06-07 17:07:46,172,172,2025-06-07 17:07:46,,165.7
28225024,MVP downhill to rotary ,Arlington,Massachusetts,1063.4,-0.5,42.419972,-71.15217,Run,1,2025-06-05 06:47:10,2025-06-05 06:47:10,348,348,2025-06-05 06:47:10,,155.6
5835433,MVP Bridge to Lamppost 1/4 Mile,Arlington,MA,395.6,0.0,42.42255,-71.149211,Run,1,2025-06-05 06:49:29,2025-06-05 06:49:29,136,136,2025-06-05 06:49:29,,157.5
14773912,Quick Whipple Summit,Winchester,Massachusetts,194.4,10.5,42.443719,-71.183086,TrailRun,1,2025-06-03 11:38:54,2025-06-03 11:38:54,75,75,2025-06-03 11:38:54,,158.0
2671589,Great Meadow Dash,Lexington,MA,1896.05,0.1,42.429827,-71.203818,Run,1,2025-05-26 09:12:35,2025-05-26 09:12:35,715,715,2025-05-26 09:12:35,,149.4
7102695,Bike Path Washington St to Bow St,Arlington,MA,2244.5,0.9,42.422503,-71.169704,Run,1,2025-05-05 09:25:21,2025-05-05 09:25:21,712,712,2025-05-05 09:25:21,,156.8
13119649,Clews Out n' Back,San Diego,California,6500.0,-0.0,32.940119,-117.213228,Run,1,2025-04-30 16:11:38,2025-04-30 16:11:38,2091,2091,2025-04-30 16:11:38,,158.6
20400666,Carmel Country to El Camino,San Diego,California,2508.6,-0.5,32.939919,-117.213784,Run,1,2025-04-30 16:11:55,2025-04-30 16:11:55,811,811,2025-04-30 16:11:55,,153.9
25581328,Carmel Creek to El Camino,San Diego,California,910.7,-0.6,32.936593,-117.226396,Run,1,2025-04-30 16:19:21,2025-04-30 16:19:21,296,296,2025-04-30 16:19:21,,151.6
10301956,Mile run with the horses,San Diego,California,1710.3,1.0,32.93313,-117.23498,Run,1,2025-04-30 16:33:36,2025-04-30 16:33:36,549,549,2025-04-30 16:33:36,,163.4
25581321,El Camino to Carmel Creek,San Diego,California,922.9,0.7,32.933089,-117.234944,Run,1,2025-04-30 16:33:36,2025-04-30 16:33:36,298,298,2025-04-30 16:33:36,,162.5
765308,Carmel Creek to Country Run,San Diego,CA,1381.4,0.6,32.936588767915964,-117.22620651125908,Run,1,2025-04-30 16:38:38,2025-04-30 16:38:38,457,457,2025-04-30 16:38:38,,164.1
26624495,Dog Park to Puke Hill Downhill,San Diego,California,790.2,-8.0,32.960346,-117.223322,Run,1,2025-04-28 16:14:00,2025-04-28 16:14:00,280,280,2025-04-28 16:14:00,,143.6
20167299,This is where a do my 1min rep,,,142.1,0.7,32.967866,-117.222165,Run,1,2025-04-28 16:21:53,2025-04-28 16:21:53,46,46,2025-04-28 16:21:53,,149.2
11228953,In the canyon ,San Diego,California,880.5,-2.1,32.966253,-117.213915,Run,1,2025-04-28 16:29:55,2025-04-28 16:29:55,278,278,2025-04-28 16:29:55,,154.9
24138468,Dog park straight,San Diego,California,332.7,-0.8,32.958053,-117.22119,Run,1,2025-04-26 09:54:29,2025-04-26 09:54:29,109,109,2025-04-26 09:54:29,,149.9
3230573,Powertrail to Dog Park,San Diego,CA,790.967,7.5,32.965355,-117.224411,Run,1,2025-04-26 10:01:59,2025-04-26 10:01:59,387,387,2025-04-26 10:01:59,,159.3
37766075,"Over the bridges and through the woods, to the parking lot we go!",Waltham,Massachusetts,1118.4,-0.2,42.401327,-71.20387,Run,1,2025-04-25 11:00:08,2025-04-25 11:00:08,363,363,2025-04-25 11:00:08,,164.4
38708385,Scutra to Rink,Arlington,Massachusetts,1517.0,0.9,42.419033,-71.158157,EBikeRide,1,2025-04-23 17:37:29,2025-04-23 17:37:29,2244,2244,2025-04-23 17:37:29,,103.7
10770468,Reservoir to Cataldo,Lexington,Massachusetts,1109.4,-0.5,42.430736,-71.187469,Run,1,2025-04-23 11:41:02,2025-04-23 11:41:02,338,338,2025-04-23 11:41:02,,160.8
26123342,Up to The Tippy Top,Lexington,Massachusetts,638.9,1.0,42.441165,-71.214887,Run,1,2025-04-20 17:49:35,2025-04-20 17:49:35,196,196,2025-04-20 17:49:35,,158.5
23339297,Marrett to Pleasant - The Last Kick,Lexington,Massachusetts,949.7,-0.9,42.435902,-71.212272,Run,1,2025-04-20 17:52:53,2025-04-20 17:52:53,299,299,2025-04-20 17:52:53,,156.3
10989684,Cross Fells Trail: Winthrop St to S Border Rd,Medford,Massachusetts,1437.9,1.2,42.431917,-71.130933,TrailRun,1,2025-04-09 13:34:04,2025-04-09 13:34:04,548,548,2025-04-09 13:34:04,,155.6
10568058,Perilous Ascent of Mt. Humpmore,Medford,Massachusetts,133.6,11.4,42.436162,-71.121785,TrailRun,1,2025-04-09 13:40:14,2025-04-09 13:40:14,81,81,2025-04-09 13:40:14,,164.0
12192606,Cross Fells - Ramshead Hill Climb (From S. Border Rd),Medford,Massachusetts,252.9,12.3,42.437116,-71.118192,TrailRun,1,2025-04-09 14:05:59,2025-04-09 14:05:59,162,162,2025-04-09 14:05:59,,165.8
28370176,Sandy Beach to Mystic Dam,Winchester,Massachusetts,991.8,0.0,42.439364,-71.145539,Run,1,2025-03-30 14:58:02,2025-03-30 14:58:02,305,305,2025-03-30 14:58:02,,168.0
8280676,MVP shortcut - South,Medford,Massachusetts,389.8,-0.4,42.424024,-71.143143,Run,1,2025-03-30 15:07:32,2025-03-30 15:07:32,126,126,2025-03-30 15:07:32,,170.0
28435139,Dodging roots along the mystic ,Medford,Massachusetts,634.1,0.0,42.420256,-71.142638,Run,1,2025-03-30 15:09:58,2025-03-30 15:09:58,199,199,2025-03-30 15:09:58,,171.9
27641761,Goat Run,Jay,Vermont,1640.0,-23.2,44.929705,-72.521658,AlpineSki,1,2025-03-23 09:45:27,2025-03-23 09:45:27,455,455,2025-03-23 09:45:27,,102.0
33744528,Harmony Lane,Jay,Vermont,762.9,-14.0,44.934373,-72.514109,AlpineSki,1,2025-03-23 09:50:41,2025-03-23 09:50:41,145,145,2025-03-23 09:50:41,,89.9
27641727,Ullr’s Dream descent,Westfield,Vermont,2857.2,-16.4,44.925745,-72.528214,AlpineSki,1,2025-03-23 10:03:42,2025-03-23 10:03:42,765,765,2025-03-23 10:03:42,,99.9
30882864,Kokomo,Jay,Vermont,1501.3,-11.8,44.933849,-72.525569,AlpineSki,1,2025-03-23 10:08:25,2025-03-23 10:08:25,435,435,2025-03-23 10:08:25,,98.9
19851564,Perry Merrill Ave,Jay,Vermont,859.4,-12.5,44.932779,-72.514388,AlpineSki,1,2025-03-23 10:25:17,2025-03-23 10:25:17,119,119,2025-03-23 10:25:17,,86.0
3573158,Access Road Climb,Jay,VT,543.071,17.9,44.9296826,-72.5053932,AlpineSki,1,2025-03-23 10:28:39,2025-03-23 10:28:39,365,365,2025-03-23 10:28:39,,73.5
33744533,Kangaroo,Jay,Vermont,654.6,-14.1,44.929778,-72.512435,AlpineSki,1,2025-03-23 10:34:44,2025-03-23 10:34:44,132,132,2025-03-23 10:34:44,,82.7
33757752,Raccoon,Jay,Vermont,636.9,-14.4,44.932467,-72.507865,AlpineSki,1,2025-03-23 11:50:45,2025-03-23 11:50:45,432,432,2025-03-23 11:50:45,,86.8
33913477,Upper Goat ,Jay,Vermont,425.9,-20.7,44.927338,-72.523054,Snowboard,1,2025-03-22 09:36:45,2025-03-22 09:36:45,95,95,2025-03-22 09:36:45,,115.7
33913474,Goat Race,Jay,Vermont,1724.1,-24.4,44.92753,-72.522952,Snowboard,1,2025-03-22 09:36:49,2025-03-22 09:36:49,354,354,2025-03-22 09:36:49,,114.1
33934108,Ullr's Dream,Westfield,Vermont,2847.6,-16.9,44.925682,-72.529058,Snowboard,1,2025-03-22 10:01:30,2025-03-22 10:01:30,610,610,2025-03-22 10:01:30,,104.3
19853741,Perry Merrill Ave,Jay,Vermont,873.1,-9.8,44.932764,-72.514196,Snowboard,1,2025-03-22 11:35:12,2025-03-22 11:35:12,149,149,2025-03-22 11:35:12,,91.1
33913307,The Jet,Westfield,Vermont,898.1,-37.4,44.920453,-72.511913,Snowboard,1,2025-03-22 12:56:51,2025-03-22 12:56:51,122,122,2025-03-22 12:56:51,,134.6
33913483,Skidmarked Haynes ,Westfield,Vermont,933.0,-35.8,44.920283,-72.510833,Snowboard,1,2025-03-22 13:18:13,2025-03-22 13:18:13,128,128,2025-03-22 13:18:13,,121.5
33934104, Mont L'Entrepide,Westfield,Vermont,548.9,-25.9,44.923108,-72.507198,Snowboard,1,2025-03-22 13:19:34,2025-03-22 13:19:34,53,53,2025-03-22 13:19:34,,121.3
33934118,Angel's Wiggle,Westfield,Vermont,453.0,-20.8,44.924617,-72.514637,Snowboard,1,2025-03-22 14:14:30,2025-03-22 14:14:30,45,45,2025-03-22 14:14:30,,118.0
24782176,Pleasant to Lake,Arlington,Massachusetts,1411.7,-0.3,42.415337,-71.153094,Run,1,2025-03-12 17:33:37,2025-03-12 17:33:37,415,415,2025-03-12 17:33:37,,133.1
22649841,ACROSS Lexington (All of C Branch W to E),Lexington,Massachusetts,1721.9,0.1,42.42995,-71.203983,Run,1,2025-03-08 12:39:03,2025-03-08 12:39:03,612,612,2025-03-08 12:39:03,,163.0
34192682,Long Fall Dams to Halfway Yurt,Carrying Place Town Township,Maine,1983.0,4.6,45.136612,-70.156963,NordicSki,1,2025-02-08 11:30:19,2025-02-08 11:30:19,2399,2399,2025-02-08 11:30:19,,128.6
14359654,to Flagstaff hut,New Portland,Maine,2715.8,-0.1,45.185433,-70.16076,NordicSki,1,2025-02-08 14:21:03,2025-02-08 14:21:03,2703,2703,2025-02-08 14:21:03,,116.9
6863278,MHT: Aiport to Poplar,Carrabassett Valley,ME,5031.8,2.5,45.090117,-70.22028,NordicSki,1,2025-02-07 15:33:23,2025-02-07 15:33:23,6411,6411,2025-02-07 15:33:23,,93.5
3304622,Unnamed Road Climb,Carrabassett Valley,ME,1600.7,6.4,45.08560320362449,-70.20525958389044,NordicSki,1,2025-02-07 16:23:08,2025-02-07 16:23:08,2291,2291,2025-02-07 16:23:08,,91.4
18252149,Natick Rail Trail North,Natick,Massachusetts,915.3,-0.0,42.304045,-71.37305,Run,1,2025-02-03 11:53:36,2025-02-03 11:53:36,286,286,2025-02-03 11:53:36,,154.4
28680846,NRT Cochituate Mile South,Natick,Massachusetts,1615.3,-0.1,42.308724,-71.382128,Run,1,2025-02-03 12:02:41,2025-02-03 12:02:41,568,568,2025-02-03 12:02:41,,155.1
18252145,Natick Rail Trail South,Natick,Massachusetts,920.7,0.1,42.308593,-71.38199,Run,1,2025-02-03 12:02:47,2025-02-03 12:02:47,347,347,2025-02-03 12:02:47,,153.9
31864996,New Res Loop,Arlington,Massachusetts,1574.0,0.1,42.426999,-71.187788,Run,1,2025-01-25 12:34:03,2025-01-25 12:34:03,481,481,2025-01-25 12:34:03,,158.2
38583737,Biotech team strides zone,Boston,Massachusetts,307.9,-0.6,42.351484,-71.052714,Run,1,2025-01-23 07:44:01,2025-01-23 07:44:01,88,88,2025-01-23 07:44:01,,162.8
4540696,Summer St to Boston Common,Boston,MA,1198.3,1.2,42.35061,-71.051168,Run,1,2025-01-22 06:38:22,2025-01-22 06:38:22,388,388,2025-01-22 06:38:22,,155.0
40542047,South - Park,Boston,Massachusetts,579.2,1.5,42.353209,-71.056554,Run,1,2025-01-22 06:41:33,2025-01-22 06:41:33,187,187,2025-01-22 06:41:33,,155.5
14753586,Park St Downhill to Chaz,Boston,Massachusetts,535.8,-2.0,42.356485,-71.06241,Run,1,2025-01-22 06:44:59,2025-01-22 06:44:59,162,162,2025-01-22 06:44:59,,154.4
25000135,300m Hill Repeats on Beacon at Boston Common,Boston,Massachusetts,300.9,4.3,42.356149,-71.068933,Run,1,2025-01-22 06:48:49,2025-01-22 06:48:49,126,126,2025-01-22 06:48:49,,154.5
17434253,Beacon Hill Repeats,Boston,Massachusetts,504.1,3.6,42.356432,-71.069153,Run,1,2025-01-22 06:48:55,2025-01-22 06:48:55,193,193,2025-01-22 06:48:55,,155.6
40542395,Ashburton Park,Boston,Massachusetts,316.0,-3.8,42.358185,-71.062634,Run,1,2025-01-22 06:52:35,2025-01-22 06:52:35,109,109,2025-01-22 06:52:35,,155.3
24495053,Barking Crab,Boston,Massachusetts,268.3,-1.5,42.354804,-71.051024,Run,1,2025-01-22 07:05:30,2025-01-22 07:05:30,88,88,2025-01-22 07:05:30,,147.8
7089824,D to 1st,Boston,MA,1138.9,0.1,42.346253,-71.041851,Run,1,2025-01-21 16:07:39,2025-01-21 16:07:39,374,374,2025-01-21 16:07:39,,154.2
22540311,Bridge and Wind Tunnel,Boston,Massachusetts,625.5,0.6,42.343258,-71.037248,Run,1,2025-01-21 16:09:58,2025-01-21 16:09:58,237,237,2025-01-21 16:09:58,,152.0
7089839,L to Farragut,Boston,MA,855.8,-0.1,42.338237,-71.035415,Run,1,2025-01-21 16:13:53,2025-01-21 16:13:53,264,264,2025-01-21 16:13:53,,150.4
16119251,E 1st Street Park,Boston,Massachusetts,493.3,-0.9,42.338308,-71.031018,Run,1,2025-01-21 16:15:44,2025-01-21 16:15:44,152,152,2025-01-21 16:15:44,,163.3
34301366,Shore Road Wrong Way,Boston,Massachusetts,292.1,-0.3,42.338434,-71.025124,Run,1,2025-01-21 16:18:16,2025-01-21 16:18:16,87,87,2025-01-21 16:18:16,,162.9
7098047,Pleasure CauseBay,Boston,MA,1211.9,-0.0,42.334997,-71.012344,Run,1,2025-01-21 16:25:45,2025-01-21 16:25:45,407,407,2025-01-21 16:25:45,,166.4
35742513,Pleasure Bay Dike Sprint,Boston,Massachusetts,453.1,-0.5,42.334906,-71.012385,Run,1,2025-01-21 16:25:48,2025-01-21 16:25:48,144,144,2025-01-21 16:25:48,,167.8
11694041,L St Broadway to Bridge,Boston,Massachusetts,964.8,-1.0,42.335695,-71.035333,Run,1,2025-01-21 16:42:32,2025-01-21 16:42:32,293,293,2025-01-21 16:42:32,,167.1
17095553,1st St to World Trade Center Ave,Boston,Massachusetts,1329.0,-0.7,42.338189,-71.035216,Run,1,2025-01-21 16:43:59,2025-01-21 16:43:59,432,432,2025-01-21 16:43:59,,168.3
11962571,Whipple Horseshoe - Clockwise,Winchester,Massachusetts,568.8,-0.3,42.438736,-71.185695,Run,1,2025-01-05 10:00:50,2025-01-05 10:00:50,243,243,2025-01-05 10:00:50,,150.2
10190057,Walnut to Trapelo on Greenway,,,1231.5,-0.7,42.410878,-71.220006,TrailRun,1,2024-12-31 11:14:27,2024-12-31 11:14:27,438,438,2024-12-31 11:14:27,,160.1
7364541,Trapelo to Bishops Forest,Waltham,MA,1483.0,-1.9,42.408508,-71.226786,TrailRun,1,2024-12-31 11:22:09,2024-12-31 11:22:09,542,542,2024-12-31 11:22:09,,160.7
7632692,Trapelo to Storer,Waltham,MA,2726.5,-0.7,42.408527,-71.226927,TrailRun,1,2024-12-31 11:22:10,2024-12-31 11:22:10,1061,1061,2024-12-31 11:22:10,,161.7
24741479,Western Greenway Bishops to Jack's Way,Waltham,Massachusetts,1160.9,0.2,42.401561,-71.232544,TrailRun,1,2024-12-31 11:31:37,2024-12-31 11:31:37,494,494,2024-12-31 11:31:37,,163.2
5201198,YMCA climb,Waltham,MA,296.3,7.3,42.398809,-71.232948,TrailRun,1,2024-12-31 11:34:28,2024-12-31 11:34:28,131,131,2024-12-31 11:34:28,,168.3
7632709,Storer to Trapelo,Waltham,MA,2607.1,0.7,42.394707,-71.232388,TrailRun,1,2024-12-31 11:52:11,2024-12-31 11:52:11,1052,1052,2024-12-31 11:52:11,,163.3
10425862,Corridor NB,Waltham,Massachusetts,951.5,-1.1,42.394836,-71.232262,TrailRun,1,2024-12-31 11:52:17,2024-12-31 11:52:17,359,359,2024-12-31 11:52:17,,157.1
7632725,Bishops Forest to Trapelo,Waltham,MA,1393.2,1.9,42.402137,-71.23289,TrailRun,1,2024-12-31 12:00:09,2024-12-31 12:00:09,580,580,2024-12-31 12:00:09,,166.8
1689437,Shady Pond Climb,Waltham,MA,689.71,5.0,42.4026429,-71.2317481,TrailRun,1,2024-12-31 12:00:57,2024-12-31 12:00:57,336,336,2024-12-31 12:00:57,,168.6
1708627,Trapelo to Walnut on Greenway,Waltham,MA,1304.31,-0.6,42.4087335,-71.2268138,TrailRun,1,2024-12-31 12:10:13,2024-12-31 12:10:13,526,526,2024-12-31 12:10:13,,162.4
16431982,Greenway to Beaver Brook bridge,Belmont,Massachusetts,775.4,-0.1,42.406437,-71.208469,TrailRun,1,2024-12-31 12:27:18,2024-12-31 12:27:18,265,265,2024-12-31 12:27:18,,167.2
26125985,Upper Turnpike to Needham,Norwich,Vermont,1959.7,2.1,43.755535,-72.32931,Run,1,2024-12-30 08:45:21,2024-12-30 08:45:21,731,731,2024-12-30 08:45:21,,155.1
26573659,Farm loop ,Norwich,Vermont,3578.3,0.0,43.755375,-72.329189,Run,1,2024-12-30 08:45:23,2024-12-30 08:45:23,1261,1261,2024-12-30 08:45:23,,154.9
37613903,donkey hill,Norwich,Vermont,448.7,5.7,43.755465,-72.329094,Run,1,2024-12-30 08:45:26,2024-12-30 08:45:26,189,189,2024-12-30 08:45:26,,156.4
853347,Upper Turnpike Rd Climb,Norwich,VT,1089.23,6.0,43.7550266,-72.3274099,Run,1,2024-12-30 08:46:16,2024-12-30 08:46:16,457,457,2024-12-30 08:46:16,,156.8
18670606,Needham to Creamery,Norwich,Vermont,1402.1,-2.5,43.760674,-72.329835,Run,1,2024-12-30 09:03:27,2024-12-30 09:03:27,429,429,2024-12-30 09:03:27,,159.1
32276111,Brookmead Warmup,Norwich,Vermont,1005.7,7.3,43.747021,-72.327352,Hike,1,2024-12-29 15:36:02,2024-12-29 15:36:02,1229,1229,2024-12-29 15:36:02,,111.4
19627654,"Lexington - Bikeway, NW",Lexington,Massachusetts,2154.5,0.4,42.440866,-71.21322,Run,1,2024-12-22 10:18:17,2024-12-22 10:18:17,742,742,2024-12-22 10:18:17,,157.4
609336,Minute Man Trail - Lexington,Lexington,MA,1606.68,-0.1,42.4506602,-71.2300363,Run,1,2024-12-22 10:28:52,2024-12-22 10:28:52,521,521,2024-12-22 10:28:52,,158.4
38379480,Hancock -> Revere,Lexington,Massachusetts,907.2,-0.5,42.450678,-71.230052,Run,1,2024-12-22 10:28:53,2024-12-22 10:28:53,304,304,2024-12-22 10:28:53,,158.3
39229282,Wave to the horses,Lexington,Massachusetts,583.0,-0.4,42.453654,-71.230894,Run,1,2024-12-22 10:30:47,2024-12-22 10:30:47,190,190,2024-12-22 10:30:47,,159.7
22469241,Lexington - MM Revere St to Bedford Rd,Lexington,Massachusetts,636.8,-1.2,42.459011,-71.232039,Run,1,2024-12-22 10:34:05,2024-12-22 10:34:05,210,210,2024-12-22 10:34:05,,158.7
19627636,"Lexington - Bikeway, SE",Lexington,Massachusetts,2151.5,-0.6,42.453481,-71.230844,Run,1,2024-12-22 10:53:43,2024-12-22 10:53:43,716,716,2024-12-22 10:53:43,,157.1
2700047,Bike Path Uphill Sprint,Lexington,MA,315.251,0.7,42.4534567,-71.2308418,Run,1,2024-12-22 10:53:44,2024-12-22 10:53:44,107,107,2024-12-22 10:53:44,,156.9
38302243,Hancock -> Maple St Bridge,Lexington,Massachusetts,2507.1,-0.4,42.450624,-71.229975,Run,1,2024-12-22 10:55:36,2024-12-22 10:55:36,841,841,2024-12-22 10:55:36,,156.2
39806496,Depot Square,Lexington,Massachusetts,327.7,-0.4,42.449056,-71.228547,Run,1,2024-12-22 10:56:44,2024-12-22 10:56:44,108,108,2024-12-22 10:56:44,,157.0
36597682,Allez à Pine Allée,Belmont,Massachusetts,260.1,-0.3,42.399481,-71.188717,TrailRun,1,2024-12-14 16:35:54,2024-12-14 16:35:54,88,88,2024-12-14 16:35:54,,161.5
25394733,Mystic Lakes clockwise full (Pleasant St),Arlington,Massachusetts,7852.9,-0.2,42.420399,-71.15302,Run,1,2024-11-24 10:00:55,2024-11-24 10:00:55,2751,2751,2024-11-24 10:00:55,,154.1
17954282,Arlington Reservoir - Bow to Lowell,Lexington,Massachusetts,1088.4,0.9,42.426526,-71.194479,MountainBikeRide,1,2024-11-06 11:40:41,2024-11-06 11:40:41,272,272,2024-11-06 11:40:41,,
7827828,Around the Reservoir,Lexington,MA,926.3,-0.2,42.430994,-71.188151,Run,1,2024-11-03 10:19:06,2024-11-03 10:19:06,347,347,2024-11-03 10:19:06,,
38050705,mile 1,Framingham,Massachusetts,1644.6,1.7,42.310559,-71.4645,TrailRun,1,2024-10-27 09:14:41,2024-10-27 09:14:41,570,570,2024-10-27 09:14:41,,
38050719,Busa road start,Framingham,Massachusetts,465.9,1.7,42.310559,-71.4645,TrailRun,1,2024-10-27 09:14:41,2024-10-27 09:14:41,132,132,2024-10-27 09:14:41,,
5989198,Busa Bushwhack 5.3 Mile Course,Framingham,MA,8544.5,0.0,42.310696,-71.464515,TrailRun,1,2024-10-27 09:14:43,2024-10-27 09:14:43,2954,2954,2024-10-27 09:14:43,,
38752901,Pinecone Ascent,Framingham,Massachusetts,623.4,4.1,42.317291,-71.470504,TrailRun,1,2024-10-27 09:19:26,2024-10-27 09:19:26,248,248,2024-10-27 09:19:26,,
16430038,Rocky Rd to Hawk End,,,813.7,0.1,42.314724,-71.476622,TrailRun,1,2024-10-27 09:23:59,2024-10-27 09:23:59,282,282,2024-10-27 09:23:59,,
22885355,Rocky Rd Climb,Framingham,Massachusetts,224.5,7.6,42.326505,-71.475099,TrailRun,1,2024-10-27 09:33:12,2024-10-27 09:33:12,105,105,2024-10-27 09:33:12,,
5978507,Pipeline Climb,Framingham,MA,194.8,12.1,42.330194,-71.472752,TrailRun,1,2024-10-27 09:38:53,2024-10-27 09:38:53,101,101,2024-10-27 09:38:53,,
38750101,LAUNCH CONTROL 2.0,Framingham,Massachusetts,628.7,-4.0,42.314875,-71.475812,TrailRun,1,2024-10-27 09:52:35,2024-10-27 09:52:35,201,201,2024-10-27 09:52:35,,
38050758,Busa road finish,Framingham,Massachusetts,1059.7,-0.7,42.313947,-71.467544,TrailRun,1,2024-10-27 09:58:43,2024-10-27 09:58:43,314,314,2024-10-27 09:58:43,,
8509057,Town forest climb from the easy direction,Natick,Massachusetts,451.5,5.3,42.296986,-71.341581,Run,1,2024-10-21 12:04:31,2024-10-21 12:04:31,233,233,2024-10-21 12:04:31,,
35159430,Lake Street Route 2 to Minuteman,Arlington,Massachusetts,719.6,-0.1,42.404413,-71.146928,Run,1,2025-07-17 10:50:12,2025-07-17 10:50:12,217,217,2025-07-17 10:50:12,,159.0
17878014,Spy Pond bikepath: uphill finish,Arlington,Massachusetts,590.3,1.7,42.403396,-71.156756,Run,1,2025-07-17 10:54:29,2025-07-17 10:54:29,191,191,2025-07-17 10:54:29,,163.6
18106784,Rt 2 access rd bus stop to stop light,Arlington,Massachusetts,1078.0,4.9,42.40796,-71.169174,Run,1,2025-07-17 11:01:29,2025-07-17 11:01:29,439,439,2025-07-17 11:01:29,,168.9
23678551,Rt 2 access rd Highland Ave to Park Ave,Arlington,Massachusetts,573.5,5.3,42.409673,-71.174353,Run,1,2025-07-17 11:04:41,2025-07-17 11:04:41,250,250,2025-07-17 11:04:41,,169.5
19617593,Alewife railroad bridge climb,Cambridge,Massachusetts,198.8,3.2,42.390134,-71.141903,Run,1,2025-07-18 07:07:26,2025-07-18 07:07:26,61,61,2025-07-18 07:07:26,,138.7
24695243,Sprint the bridge,Cambridge,Massachusetts,405.0,0.2,42.390354,-71.141781,Run,1,2025-07-18 07:07:29,2025-07-18 07:07:29,161,161,2025-07-18 07:07:29,,143.0
3159457,Bike path - Varnum to Lake (ends before Lake),Arlington,MA,429.559,0.1,42.400644,-71.144811,Run,1,2025-07-18 07:14:51,2025-07-18 07:14:51,140,140,2025-07-18 07:14:51,,153.3
5432049,MInuteman Trail: Lake st. to Mass Ave,Cambridge,MA,1247.9,0.7,42.40436,-71.146962,Run,1,2025-07-18 07:17:45,2025-07-18 07:17:45,403,403,2025-07-18 07:17:45,,154.0
13538937,it might be nice to get Hamilton on your side,Arlington,Massachusetts,530.8,-0.2,42.409141,-71.148742,Run,1,2025-07-18 07:30:12,2025-07-18 07:30:12,174,174,2025-07-18 07:30:12,,159.0
1500331,Senda Panacea Climb,San Diego,CA,998.89,5.2,32.940779300406575,-117.1518669091165,Run,1,2025-07-31 09:56:29,2025-07-31 09:56:29,404,404,2025-07-31 09:56:29,,157.0
30138021,E pq creek park to canyonside,San Diego,California,956.6,0.7,32.939942,-117.14951,EBikeRide,1,2025-08-06 08:17:17,2025-08-06 08:17:17,280,280,2025-08-06 08:17:17,,93.4
41278967,Freeway West,San Diego,California,1121.7,-0.5,32.940823,-117.137032,EBikeRide,1,2025-08-06 08:36:00,2025-08-06 08:36:00,251,251,2025-08-06 08:36:00,,91.0
1268025,Powerline to Preserves at Del Mar,San Diego,CA,1299.56,4.5,32.9342965,-117.1686259,Run,1,2025-08-07 09:36:45,2025-08-07 09:36:45,484,484,2025-08-07 09:36:45,,165.5
3422025,Copenhagen downhill dash,San Diego,CA,900.6,-6.0,32.947507,-117.1632671,Run,1,2025-08-10 08:17:16,2025-08-10 08:17:16,327,327,2025-08-10 08:17:16,,152.7
5813121,canyon escape,San Diego,CA,292.3,3.1,32.937838,-117.154623,MountainBikeRide,1,2025-08-12 14:19:16,2025-08-12 14:19:16,78,78,2025-08-12 14:19:16,,146.1
6118865,Miner's Loop to Peak via Nighthawk,San Diego,CA,3480.5,6.7,32.992643,-117.115706,TrailRun,1,2025-08-15 09:17:51,2025-08-15 09:17:51,1673,1673,2025-08-15 09:17:51,,161.1
6118874,Miner's Loop to Peak - round trip,San Diego,CA,6764.3,-0.0,32.992631,-117.115008,TrailRun,1,2025-08-15 09:18:10,2025-08-15 09:18:10,3204,3204,2025-08-15 09:18:10,,158.2
13065085,Summit to Miner's Trailhead (East Descent),San Diego,California,3236.4,-7.2,32.981655,-117.11603,TrailRun,1,2025-08-15 09:46:06,2025-08-15 09:46:06,1545,1545,2025-08-15 09:46:06,,154.1
922510,Camino Ruiz Climb,San Diego,CA,898.51,7.9,32.9358911,-117.1514899,Run,1,2025-08-20 08:58:24,2025-08-20 08:58:24,425,425,2025-08-20 08:58:24,,165.6
6776718,~~ Camru Descent ~~,San Diego,CA,788.2,-8.1,32.933041,-117.146637,Run,1,2025-08-20 09:12:19,2025-08-20 09:12:19,284,284,2025-08-20 09:12:19,,154.8
5574760,Marion Mountain Trail Climb,"United States, リバーサイド＝サン・バーナディーノ＝オンタリオ",CA,486.5,13.3,33.791098,-116.735494,Hike,1,2025-08-24 07:20:52,2025-08-24 07:20:52,682,682,2025-08-24 07:20:52,,122.8
695973,Forest Route 4 S02 Climb,Banning,CA,3836.57,17.4,33.791069,-116.735492,Hike,1,2025-08-24 07:23:07,2025-08-24 07:23:07,5275,5275,2025-08-24 07:23:07,,127.3
16527481,San Jacinto Peak via Marion Mt. Trail Hike - round trip,,,19929.9,0.0,33.791182,-116.735404,Hike,1,2025-08-24 07:23:07,2025-08-24 07:23:07,26517,26517,2025-08-24 07:23:07,,123.2
16527493,San Jacinto Peak via Marion Mt. Trail Hike - ascent,,California,10123.2,13.5,33.791182,-116.735404,Hike,1,2025-08-24 07:23:07,2025-08-24 07:23:07,13581,13581,2025-08-24 07:23:07,,130.1
38055139,PCT to SJP Summit Hut,,California,4496.0,11.2,33.801962,-116.698235,Hike,1,2025-08-24 09:37:16,2025-08-24 09:37:16,5249,5249,2025-08-24 09:37:16,,136.2
37913085,1. 3 miles sign Little Round Valley to San Jacinto Peak,,California,2372.4,12.8,33.813424,-116.686977,Hike,1,2025-08-24 10:25:08,2025-08-24 10:25:08,2681,2681,2025-08-24 10:25:08,,144.7
2212316,Pacific Crest Trail Climb,,CA,375.499,10.9,33.81231577,-116.67950632,Hike,1,2025-08-24 10:58:26,2025-08-24 10:58:26,397,397,2025-08-24 10:58:26,,148.3
37859392,Marion Mountain Trail PCT to Campground,,California,3517.5,-18.2,33.800742,-116.705337,Hike,1,2025-08-24 13:31:14,2025-08-24 13:31:14,3835,3835,2025-08-24 13:31:14,,109.3
14844778,Roadrunner Loop,San Diego,California,1413.0,0.0,32.976265,-117.105773,TrailRun,1,2025-08-28 09:47:57,2025-08-28 09:47:57,505,505,2025-08-28 09:47:57,,159.1
39716344,Darkwood canyon (full),San Diego,California,2707.8,2.5,32.940367,-117.149431,Run,1,2025-09-02 10:59:15,2025-09-02 10:59:15,1025,1025,2025-09-02 10:59:15,,157.1
3952545,Sundance Urban Trail Climb,San Diego,CA,650.8,3.2,32.956005,-117.141351,Run,1,2025-09-02 11:11:44,2025-09-02 11:11:44,274,274,2025-09-02 11:11:44,,158.7
38624837,Sundance Urban Trail (down),San Diego,California,652.3,-3.9,32.957965,-117.135589,Run,1,2025-09-02 11:19:17,2025-09-02 11:19:17,220,220,2025-09-02 11:19:17,,152.0
38249696,Darkwood canyon down from Sundance,San Diego,California,1955.2,-2.0,32.955824,-117.141876,Run,1,2025-09-02 11:23:30,2025-09-02 11:23:30,628,628,2025-09-02 11:23:30,,162.0
3789910,Ridge Run (Full from PL),San Diego,CA,1363.01,-1.0,32.944181,-117.168868,MountainBikeRide,1,2025-09-04 12:47:36,2025-09-04 12:47:36,438,438,2025-09-04 12:47:36,,134.7
1647075,Ridge Run to Tower DH plus Race to the Sign,San Diego,CA,2552.03,-2.9,32.94445736333728,-117.16937636956573,MountainBikeRide,1,2025-09-04 12:47:46,2025-09-04 12:47:46,1006,1006,2025-09-04 12:47:46,,136.9
21959096,1st bridge west,San Diego,California,405.0,-3.8,32.927311,-117.178682,MountainBikeRide,1,2025-09-04 13:05:18,2025-09-04 13:05:18,158,158,2025-09-04 13:05:18,,132.7
8396950,Hilltop Park to Blk Mtn Peak,San Diego,California,3337.3,6.6,32.971372,-117.117337,TrailRun,1,2025-09-07 08:27:39,2025-09-07 08:27:39,2153,2153,2025-09-07 08:27:39,,135.9
941503,Laurentian Dr Climb,San Diego,CA,666.696,9.2,32.97655068864276,-117.11092392003795,TrailRun,1,2025-09-07 08:36:35,2025-09-07 08:36:35,445,445,2025-09-07 08:36:35,,137.4
11039973,Littleblack Bypass Eastbound,San Diego,California,399.1,7.5,32.980492,-117.107829,TrailRun,1,2025-09-07 09:15:47,2025-09-07 09:15:47,220,220,2025-09-07 09:15:47,,158.2
21605559,Manzanita Loop 1st half (CCW),San Diego,California,1580.8,-0.0,32.980754,-117.104125,TrailRun,1,2025-09-07 09:21:58,2025-09-07 09:21:58,697,697,2025-09-07 09:21:58,,151.4
21605588,Manzanita Loop Full (CCW),San Diego,California,2614.9,-0.0,32.980722,-117.104121,TrailRun,1,2025-09-07 09:21:59,2025-09-07 09:21:59,1168,1168,2025-09-07 09:21:59,,151.2
1440867,Lake Shore Trail 1,San Diego,CA,2656.15,-0.2,33.0545093,-117.0752807,Run,1,2025-09-09 17:45:34,2025-09-09 17:45:34,1180,1180,2025-09-09 17:45:34,,133.3
4022712,Lake Short Short,San Diego,CA,833.8,0.1,33.054766,-117.075218,Run,1,2025-09-09 17:45:50,2025-09-09 17:45:50,371,371,2025-09-09 17:45:50,,135.1
1581559,RB Community Parkdrwy Hill Repeat,San Diego,CA,226.865,14.9,33.049433659792925,-117.07982713367518,Run,1,2025-09-09 18:07:29,2025-09-09 18:07:29,155,155,2025-09-09 18:07:29,,152.4
11437559,West Rim Lookout ST CCW,San Diego,California,1263.5,-0.2,32.948523,-117.173539,MountainBikeRide,1,2025-09-11 10:00:24,2025-09-11 10:00:24,424,424,2025-09-11 10:00:24,,129.5
12128025,Lookout Point Trail N,San Diego,California,672.3,-0.3,32.948294,-117.168794,MountainBikeRide,1,2025-09-11 10:04:59,2025-09-11 10:04:59,146,146,2025-09-11 10:04:59,,135.9
873252,Eastvale Rd Climb,Poway,CA,518.85,8.9,33.0047412,-117.0113708,Hike,1,2025-09-21 10:20:30,2025-09-21 10:20:30,384,384,2025-09-21 10:20:30,,101.9
873253,Quail Mountain Rd Climb,Poway,CA,1555.88,11.3,33.0031595,-117.0054573,Hike,1,2025-09-21 10:30:33,2025-09-21 10:30:33,1320,1320,2025-09-21 10:30:33,,116.2
1029997,Mt Woodson via Lake Poway,Poway,CA,4337.19,12.3,33.0046643,-117.0060004,Hike,1,2025-09-21 10:32:54,2025-09-21 10:32:54,4717,4717,2025-09-21 10:32:54,,117.7
873254,Woodson Ridge Rd Climb,Poway,CA,1976.7,13.9,33.003831,-116.9918269,Hike,1,2025-09-21 10:54:49,2025-09-21 10:54:49,1888,1888,2025-09-21 10:54:49,,130.7
4490769,Quail Mountain Road Climb,Poway,CA,337.4,13.0,33.003849,-116.991639,Hike,1,2025-09-21 10:55:04,2025-09-21 10:55:04,277,277,2025-09-21 10:55:04,,125.4
3371641,Mount Woodson Road Climb,Poway,CA,1023.8,8.5,33.008506,-116.979794,Hike,1,2025-09-21 11:27:47,2025-09-21 11:27:47,1353,1353,2025-09-21 11:27:47,,102.5
2055061,Mt Woodson Rd Climb,Ramona,CA,422.6,11.4,33.00878352488671,-116.97457850921617,Hike,1,2025-09-21 11:37:51,2025-09-21 11:37:51,1044,1044,2025-09-21 11:37:51,,95.2
6520866,Woodson downhill,Ramona,CA,4440.5,-12.0,33.009191,-116.973667,Hike,1,2025-09-21 11:59:27,2025-09-21 11:59:27,3937,3937,2025-09-21 11:59:27,,92.3
9020448,Quickie mile 2,San Diego,California,1594.5,0.5,32.938044,-117.15035,Run,1,2025-09-25 09:06:35,2025-09-25 09:06:35,588,588,2025-09-25 09:06:35,,149.5
31130934,Up Darkwood,San Diego,California,1910.6,1.7,32.941241,-117.149263,EBikeRide,1,2025-09-28 16:02:25,2025-09-28 16:02:25,707,707,2025-09-28 16:02:25,,89.2
2509060,Horseshoe Meadows Rd Climb,,CA,880.396,8.1,36.4531488,-118.1700411,Hike,1,2025-09-29 15:44:25,2025-09-29 15:44:25,696,696,2025-09-29 15:44:25,,116.9
12535042,Whitney - bottom to top to bottom,,,34308.8,0.0,36.58707,-118.240309,Hike,1,2025-10-01 03:17:15,2025-10-01 03:17:15,53871,53871,2025-10-01 03:17:15,,116.5
687993,Whitney Portal Rd Climb,Lone Pine,CA,5940.59,10.2,36.58707909286022,-118.24012217111886,Hike,1,2025-10-01 03:17:30,2025-10-01 03:17:30,7545,7545,2025-10-01 03:17:30,,118.4
16389904,Mount Whitney Portal to Hut,,California,17469.9,10.7,36.587449,-118.240293,Hike,1,2025-10-01 03:18:40,2025-10-01 03:18:40,30024,30024,2025-10-01 03:18:40,,121.2
1859047,Whitney Portal Rd Climb,,CA,480.215,8.6,36.589082703028424,-118.24245393287227,Hike,1,2025-10-01 03:31:37,2025-10-01 03:31:37,389,389,2025-10-01 03:31:37,,130.8
1825676,Whitney Portal Rd Climb,,CA,971.666,6.7,36.58569633029401,-118.24448361061513,Hike,1,2025-10-01 03:44:00,2025-10-01 03:44:00,700,700,2025-10-01 03:44:00,,121.3
909407,Whitney Portal Rd Climb,Lone Pine,CA,762.454,9.7,36.578415,-118.251474,Hike,1,2025-10-01 04:46:00,2025-10-01 04:46:00,1123,1123,2025-10-01 04:46:00,,105.3
699862,Whitney Portal Rd Climb,Lone Pine,CA,3471.64,13.3,36.571745,-118.258997,Hike,1,2025-10-01 05:33:42,2025-10-01 05:33:42,6882,6882,2025-10-01 05:33:42,,123.0
39954269,Trail Camp - Mount Whitney Ascent,,California,6765.1,10.7,36.562586,-118.280672,Hike,1,2025-10-01 07:40:36,2025-10-01 07:40:36,14263,14263,2025-10-01 07:40:36,,121.0
4256972,The Whitney Trail Switchbacks,United States,CA,3194.5,14.6,36.562653,-118.28111,Hike,1,2025-10-01 07:55:45,2025-10-01 07:55:45,6620,6620,2025-10-01 07:55:45,,123.8
6005861,Mount Whitney Trail Climb,"Inyo County, CA, USA",CA,529.3,15.1,36.561031,-118.285194,Hike,1,2025-10-01 08:28:59,2025-10-01 08:28:59,852,852,2025-10-01 08:28:59,,138.9
4235593,Segment,United States,CA,513.0,15.1,36.558857,-118.287402,Hike,1,2025-10-01 09:26:55,2025-10-01 09:26:55,1185,1185,2025-10-01 09:26:55,,110.6
1630494,Trail Crest to Whitney Summit,,CA,3355.68,8.2,36.55945,-118.291726,Hike,1,2025-10-01 09:51:14,2025-10-01 09:51:14,6558,6558,2025-10-01 09:51:14,,121.3
682498,Whitney Portal Rd Climb,Lone Pine,CA,2118.99,10.8,36.567313,-118.292958,Hike,1,2025-10-01 10:30:15,2025-10-01 10:30:15,4134,4134,2025-10-01 10:30:15,,125.2
1966601,Pacific Crest Trail Climb,,CA,413.94,10.8,36.577760092914104,-118.29521742649376,Hike,1,2025-10-01 11:30:35,2025-10-01 11:30:35,611,611,2025-10-01 11:30:35,,130.6
1633904,Mount Whitney Summit to Trailhead Down,,CA,15201.6,-12.1,36.578691909089684,-118.292316198349,Hike,1,2025-10-01 11:39:38,2025-10-01 11:39:38,23728,23728,2025-10-01 11:39:38,,110.7
10375445,summit down to trail camp,,California,6736.6,-10.9,36.578081,-118.293087,Hike,1,2025-10-01 12:22:14,2025-10-01 12:22:14,10394,10394,2025-10-01 12:22:14,,109.1
15595905,99 Switchbacks down,,California,2529.1,-14.8,36.558974,-118.291197,Hike,1,2025-10-01 13:52:17,2025-10-01 13:52:17,4974,4974,2025-10-01 13:52:17,,111.3
4437575,Lone Pine Lake to Trail head,United States,CA,4670.7,-11.1,36.575169,-118.250724,Hike,1,2025-10-01 17:05:38,2025-10-01 17:05:38,4168,4168,2025-10-01 17:05:38,,104.7
11835209,Drop the Colostomy Bag,San Diego,California,386.3,-3.7,32.940498,-117.185349,MountainBikeRide,1,2025-10-16 12:57:10,2025-10-16 12:57:10,120,120,2025-10-16 12:57:10,,151.3
11597663,Colostomy,San Diego,California,830.3,1.7,32.940512,-117.185411,MountainBikeRide,1,2025-10-16 12:57:11,2025-10-16 12:57:11,354,354,2025-10-16 12:57:11,,160.2
4233925,Torrey Pines beach South run (Guard Tower #4 to rock break),San Diego,CA,2123.5,-0.0,32.932749,-117.260552,Run,1,2025-10-19 08:22:55,2025-10-19 08:22:55,1091,1091,2025-10-19 08:22:55,,140.7
1737628,Broken Hill to S Fork Climb,,CA,1842.44,5.4,32.914902437478304,-117.25818590261042,Run,1,2025-10-19 08:40:43,2025-10-19 08:40:43,807,807,2025-10-19 08:40:43,,164.9
5894710,Flat Rock Climb,San Diego,CA,974.1,8.9,32.914814,-117.258137,Run,1,2025-10-19 08:41:37,2025-10-19 08:41:37,391,391,2025-10-19 08:41:37,,171.1
7107546,New Upper freeway,San Diego,CA,812.6,2.0,32.914881,-117.252483,Run,1,2025-10-19 08:48:30,2025-10-19 08:48:30,354,354,2025-10-19 08:48:30,,157.4
7107548,Down New Upper freeway,San Diego,CA,887.9,-2.0,32.914175,-117.246028,Run,1,2025-10-19 08:58:19,2025-10-19 08:58:19,282,282,2025-10-19 08:58:19,,160.3
1254704,South Fork Loop,San Diego,CA,1541.06,-0.6,32.9141737986356,-117.24609207361937,Run,1,2025-10-19 08:58:20,2025-10-19 08:58:20,530,530,2025-10-19 08:58:20,,160.7
5314302,GF loop,San Diego,CA,927.7,-0.3,32.923036,-117.255947,Run,1,2025-10-19 09:14:20,2025-10-19 09:14:20,335,335,2025-10-19 09:14:20,,161.4
4699861,The best .2mi's in running(At least in San Diego),San Diego,CA,342.3,-2.5,32.925033,-117.258166,Run,1,2025-10-19 09:16:10,2025-10-19 09:16:10,112,112,2025-10-19 09:16:10,,162.4
18562157,Guy Fleming to lower bathrooms,San Diego,California,748.2,-9.3,32.923034,-117.255607,Run,1,2025-10-19 09:20:11,2025-10-19 09:20:11,255,255,2025-10-19 09:20:11,,149.9
32151555,Parking Lot to Ramp,San Diego,California,952.0,0.0,32.926927,-117.259509,Run,1,2025-10-19 09:24:30,2025-10-19 09:24:30,321,321,2025-10-19 09:24:30,,160.0
29584666,Up Lost Lines,San Diego,California,526.5,8.1,32.939824,-117.159358,Run,1,2025-10-22 13:33:40,2025-10-22 13:33:40,363,363,2025-10-22 13:33:40,,158.7
13320004,"Tunnel 4, Deer Canyon, ZigZags and Mesa Rim Trail loop",,,6742.1,-0.1,32.945468,-117.163966,MountainBikeRide,1,2025-10-28 14:19:53,2025-10-28 14:19:53,2495,2495,2025-10-28 14:19:53,,146.4
11325611,Tunnel 4 to the pond,San Diego,California,2834.4,-2.5,32.94738,-117.16312,MountainBikeRide,1,2025-10-28 14:20:56,2025-10-28 14:20:56,1151,1151,2025-10-28 14:20:56,,143.7
1419711,West Deer Canyon,San Diego,CA,1398.57,-2.0,32.95569531619549,-117.1695401519537,MountainBikeRide,1,2025-10-28 14:35:08,2025-10-28 14:35:08,433,433,2025-10-28 14:35:08,,149.6
14830965,Dutchman's Delight,San Diego,California,2584.3,-0.3,32.955742,-117.170235,MountainBikeRide,1,2025-10-28 14:35:32,2025-10-28 14:35:32,774,774,2025-10-28 14:35:32,,149.0
4289756,Preserve Terrace Climb,San Diego,CA,1298.3,5.7,32.949187,-117.181428,MountainBikeRide,1,2025-10-28 14:44:07,2025-10-28 14:44:07,538,538,2025-10-28 14:44:07,,157.6
1179841,Switchbacks Climb,San Diego,CA,1111.36,6.5,32.9500912,-117.17927196666666,MountainBikeRide,1,2025-10-28 14:45:48,2025-10-28 14:45:48,665,665,2025-10-28 14:45:48,,158.8
845515,Zig Zags,San Diego,CA,501.139,10.5,32.9512023,-117.1745218,MountainBikeRide,1,2025-10-28 14:48:47,2025-10-28 14:48:47,394,394,2025-10-28 14:48:47,,164.5
1451071,Del Mar Mesa Lead in (eastbound),San Diego,CA,1379.16,0.7,32.94315070848255,-117.17816521424537,MountainBikeRide,1,2025-11-04 15:00:05,2025-11-04 15:00:05,292,292,2025-11-04 15:00:05,,139.0
33414064,T4 & 1,San Diego,California,2190.6,-1.7,32.947304,-117.163093,MountainBikeRide,1,2025-11-04 15:10:59,2025-11-04 15:10:59,905,905,2025-11-04 15:10:59,,132.3
6306416,Stay on the rocks!,Coronado,CA,1153.8,0.1,32.687247,-117.191104,Run,1,2025-11-09 07:40:35,2025-11-09 07:40:35,364,364,2025-11-09 07:40:35,,145.2
10624624,Dont get hit by a car for the next mile!,Coronado,California,1613.0,0.0,32.678143,-117.173908,Run,1,2025-11-09 07:51:00,2025-11-09 07:51:00,498,498,2025-11-09 07:51:00,,158.0
2681407,Silver Strand Loop #1,Coronado,CA,5717.16,0.0,32.675587,-117.17064,Run,1,2025-11-09 07:53:08,2025-11-09 07:53:08,1800,1800,2025-11-09 07:53:08,,161.0
33347414,Glorietta Bay Park sprint,Coronado,California,2088.5,-0.0,32.675127,-117.169567,Run,1,2025-11-09 07:53:41,2025-11-09 07:53:41,647,647,2025-11-09 07:53:41,,158.9
11014095,Fiddlers to cays,Coronado,California,3687.3,0.0,32.656535,-117.15341,Run,1,2025-11-09 08:07:02,2025-11-09 08:07:02,1150,1150,2025-11-09 08:07:02,,163.3
15426929,Reverse Squashed Rabbit,San Diego,California,2729.7,0.0,32.948702,-117.165631,MountainBikeRide,1,2025-11-12 13:22:09,2025-11-12 13:22:09,706,706,2025-11-12 13:22:09,,134.6
24928938,Celome Way to Mannix,San Diego,California,550.9,-2.5,32.938933,-117.167729,MountainBikeRide,1,2025-11-12 13:40:04,2025-11-12 13:40:04,94,94,2025-11-12 13:40:04,,151.3
23265338,Park Village Sprint,San Diego,California,576.8,1.3,32.940379,-117.152228,Run,1,2025-11-21 16:09:45,2025-11-21 16:09:45,193,193,2025-11-21 16:09:45,,158.6
5436768,Miramar Full Dirt Track,San Diego,CA,4880.4,-0.0,32.914588,-117.09658,Ride,1,2025-11-23 15:31:29,2025-11-23 15:31:29,3711,3711,2025-11-23 15:31:29,,84.6
786447,Lake Sprint,San Diego,CA,488.42,0.5,32.915911534801126,-117.10782403126359,Ride,1,2025-11-23 16:42:24,2025-11-23 16:42:24,161,161,2025-11-23 16:42:24,,89.5
789650,Under The Bridge Westbound,San Diego,CA,213.82,6.4,32.82415182329714,-117.07579141482711,MountainBikeRide,1,2025-11-30 09:00:27,2025-11-30 09:00:27,110,110,2025-11-30 09:00:27,,101.8
749396,Colina Dorada Dr Climb,San Diego,CA,912.43,9.6,32.81666208989918,-117.07381035201252,MountainBikeRide,1,2025-11-30 09:10:39,2025-11-30 09:10:39,708,708,2025-11-30 09:10:39,,144.3
5115862,"Warm up""s Over",San Diego,CA,445.4,10.2,32.819286,-117.071089,MountainBikeRide,1,2025-11-30 09:17:01,2025-11-30 09:17:01,332,332,2025-11-30 09:17:01,,145.6
4458415,Up and Over,San Diego,CA,703.3,-1.6,32.820163,-117.070017,MountainBikeRide,1,2025-11-30 09:18:34,2025-11-30 09:18:34,338,338,2025-11-30 09:18:34,,145.8
7833725,Warm up,San Diego,CA,320.7,7.2,32.825471,-117.07109,MountainBikeRide,1,2025-11-30 09:24:24,2025-11-30 09:24:24,235,235,2025-11-30 09:24:24,,140.8
7513492,Steep little bugger,San Diego,CA,80.3,14.7,32.830068,-117.069107,MountainBikeRide,1,2025-11-30 09:31:00,2025-11-30 09:31:00,177,177,2025-11-30 09:31:00,,139.0
7833741,Climbing the ridgeline towards e-ticket,San Diego,CA,1171.8,1.8,32.831185,-117.069686,MountainBikeRide,1,2025-11-30 09:34:25,2025-11-30 09:34:25,424,424,2025-11-30 09:34:25,,136.7
2651223,Get Your Fingers Off The Brakes!,San Diego,CA,790.06,-9.3,32.84164317883551,-117.0729371253401,MountainBikeRide,1,2025-11-30 09:45:09,2025-11-30 09:45:09,183,183,2025-11-30 09:45:09,,134.5
3564580,Snake Eyes,San Diego,CA,977.79,-12.1,32.842267798259854,-117.07400707527995,MountainBikeRide,1,2025-11-30 09:45:42,2025-11-30 09:45:42,267,267,2025-11-30 09:45:42,,126.8
20983646,Roller Coaster,,,338.2,-8.5,32.840524,-117.080646,MountainBikeRide,1,2025-11-30 09:48:54,2025-11-30 09:48:54,95,95,2025-11-30 09:48:54,,113.4
28946439,e-ticket queue,San Diego,California,2538.2,3.2,32.842683,-117.082774,MountainBikeRide,1,2025-11-30 09:50:33,2025-11-30 09:50:33,1173,1173,2025-11-30 09:50:33,,146.2
948539,Sandbags,San Diego,CA,695.693,5.8,32.84344065,-117.08087972,MountainBikeRide,1,2025-11-30 09:51:27,2025-11-30 09:51:27,386,386,2025-11-30 09:51:27,,151.4
6744212,2nd Wind,San Diego,CA,681.7,6.1,32.84668,-117.075012,MountainBikeRide,1,2025-11-30 09:57:57,2025-11-30 09:57:57,466,466,2025-11-30 09:57:57,,148.4
4699419,E-ticket starter kit to bottom of first uphill,San Diego,CA,336.0,-11.6,32.843344,-117.06805,MountainBikeRide,1,2025-11-30 10:13:46,2025-11-30 10:13:46,100,100,2025-11-30 10:13:46,,119.1
687326,E-Ticket Downhill,San Diego,CA,2052.1,-5.5,32.8432797,-117.0680185,MountainBikeRide,1,2025-11-30 10:13:48,2025-11-30 10:13:48,613,613,2025-11-30 10:13:48,,130.0
14102165,E-Ticket DH (upper half),San Diego,California,1063.2,-6.7,32.843124,-117.067809,MountainBikeRide,1,2025-11-30 10:13:58,2025-11-30 10:13:58,341,341,2025-11-30 10:13:58,,130.1
12130534,E-Ticket Down and Out,San Diego,California,2541.7,-2.5,32.843049,-117.067646,MountainBikeRide,1,2025-11-30 10:14:02,2025-11-30 10:14:02,1058,1058,2025-11-30 10:14:02,,139.1
6938207,E-Ticket Flow,San Diego,CA,606.9,-3.7,32.841738,-117.064362,MountainBikeRide,1,2025-11-30 10:17:20,2025-11-30 10:17:20,152,152,2025-11-30 10:17:20,,140.3
1216784,Lower E-Ticket,San Diego,CA,1345.89,-4.8,32.841121524748694,-117.0646009032428,MountainBikeRide,1,2025-11-30 10:17:59,2025-11-30 10:17:59,353,353,2025-11-30 10:17:59,,132.7
10873870,E-Ticket (Just the fire-road),San Diego,California,197.2,-6.3,32.837155,-117.062932,MountainBikeRide,1,2025-11-30 10:20:26,2025-11-30 10:20:26,57,57,2025-11-30 10:20:26,,125.4
2532691,Lower E-Ticket Singletrack,San Diego,CA,609.63,-6.0,32.83534317277372,-117.06354369409382,MountainBikeRide,1,2025-11-30 10:21:29,2025-11-30 10:21:29,143,143,2025-11-30 10:21:29,,127.3
789647,E-Ticket Climb Out,San Diego,CA,476.43,9.9,32.82969209365547,-117.06284229643643,MountainBikeRide,1,2025-11-30 10:24:50,2025-11-30 10:24:50,405,405,2025-11-30 10:24:50,,153.2
1177397,I always see a snake hill,San Diego,CA,389.734,8.1,32.82632100995039,-117.06734232850388,MountainBikeRide,1,2025-11-30 10:32:30,2025-11-30 10:32:30,259,259,2025-11-30 10:32:30,,150.9
7506172,Hidden Gold DH,San Diego,CA,297.2,-10.9,32.824157,-117.073033,MountainBikeRide,1,2025-11-30 10:40:27,2025-11-30 10:40:27,146,146,2025-11-30 10:40:27,,122.8
6701143,Don't FUGG up!,San Diego,CA,64.8,-21.9,32.823684,-117.075357,MountainBikeRide,1,2025-11-30 10:41:06,2025-11-30 10:41:06,127,127,2025-11-30 10:41:06,,121.0
789651,Under The Bridge Eastbound,San Diego,CA,186.7,10.4,32.82415081746876,-117.0757142174989,MountainBikeRide,1,2025-11-30 10:42:53,2025-11-30 10:42:53,201,201,2025-11-30 10:42:53,,139.4
8620456,Rach House crossing to PQ crossing (E->W),San Diego,California,1293.5,-0.6,32.937463,-117.135639,MountainBikeRide,1,2025-12-05 15:42:16,2025-12-05 15:42:16,223,223,2025-12-05 15:42:16,,145.2
11324907,Demaca Climb,San Diego,California,482.8,7.0,32.980633,-117.108421,MountainBikeRide,1,2025-12-11 13:26:15,2025-12-11 13:26:15,349,349,2025-12-11 13:26:15,,142.0
37321083,Ridge Wave Buzz,San Diego,California,1370.9,-0.6,32.980671,-117.104334,MountainBikeRide,1,2025-12-11 13:53:00,2025-12-11 13:53:00,436,436,2025-12-11 13:53:00,,148.2
11491970,Tasty Waves and a Cool Buzz,San Diego,California,650.2,-0.9,32.980509,-117.104402,MountainBikeRide,1,2025-12-11 13:53:06,2025-12-11 13:53:06,203,203,2025-12-11 13:53:06,,144.6
22719756,Roadrunner Loop,San Diego,California,1413.3,-0.0,32.976323,-117.105873,MountainBikeRide,1,2025-12-11 13:57:16,2025-12-11 13:57:16,396,396,2025-12-11 13:57:16,,155.4
41531671,Fast Times on Ridgemount High S,San Diego,California,610.6,0.6,32.976285,-117.105728,MountainBikeRide,1,2025-12-11 13:57:19,2025-12-11 13:57:19,171,171,2025-12-11 13:57:19,,154.7
11930770,Ridgemont Loop CW,San Diego,California,544.3,-0.4,32.972697,-117.106768,MountainBikeRide,1,2025-12-11 13:59:26,2025-12-11 13:59:26,138,138,2025-12-11 13:59:26,,160.4
11572433,Fast Times on Ridgemount High N,San Diego,California,633.9,-0.6,32.971099,-117.107006,MountainBikeRide,1,2025-12-11 14:00:13,2025-12-11 14:00:13,214,214,2025-12-11 14:00:13,,156.4
14337214,Another Singletrack Mind's wet dream segment,San Diego,California,1467.0,-7.3,32.976353,-117.1061,MountainBikeRide,1,2025-12-11 14:05:21,2025-12-11 14:05:21,491,491,2025-12-11 14:05:21,,141.1
14450014,You Put The Boom-Boom Into My Heart,San Diego,California,676.2,-9.9,32.976334,-117.106019,MountainBikeRide,1,2025-12-11 14:05:21,2025-12-11 14:05:21,190,190,2025-12-11 14:05:21,,133.9
32368419,Tunnel #4 Start to kink,San Diego,California,699.4,-5.7,32.947485,-117.163238,MountainBikeRide,1,2025-12-16 13:09:57,2025-12-16 13:09:57,160,160,2025-12-16 13:09:57,,151.7
12667641,Chi's Burger,San Diego,California,1227.0,2.4,32.955212,-117.169217,MountainBikeRide,1,2025-12-16 13:21:40,2025-12-16 13:21:40,673,673,2025-12-16 13:21:40,,145.7
19132600,Crazy Horse Singletrack,San Diego,California,302.8,-14.5,32.944785,-117.190947,MountainBikeRide,1,2025-12-21 09:34:05,2025-12-21 09:34:05,117,117,2025-12-21 09:34:05,,135.5
23685040,Just a lil dip,San Diego,California,507.6,1.1,32.942667,-117.19397,MountainBikeRide,1,2025-12-21 09:50:32,2025-12-21 09:50:32,143,143,2025-12-21 09:50:32,,151.1
3763360,DM Mesa/McGonigle Rnch R-Hand Sweeper ,San Diego,CA,919.028,4.4,32.942293575033545,-117.19219828024507,MountainBikeRide,1,2025-12-21 09:51:02,2025-12-21 09:51:02,384,384,2025-12-21 09:51:02,,149.3
20999646,Mcgonigle Little Climb,San Diego,California,326.2,4.5,32.942219,-117.185848,MountainBikeRide,1,2025-12-21 09:54:52,2025-12-21 09:54:52,160,160,2025-12-21 09:54:52,,149.5
14013486,Sprint to Ragweed,,,473.4,3.6,32.948784,-117.138978,Run,1,2025-12-27 09:03:30,2025-12-27 09:03:30,182,182,2025-12-27 09:03:30,,154.9
40802228,Black Mountain Just The Tip,San Diego,California,608.7,7.1,32.947391,-117.130092,Run,1,2025-12-27 09:08:50,2025-12-27 09:08:50,263,263,2025-12-27 09:08:50,,157.8
3350488,BlackToDelSur,San Diego,CA,2307.13,-2.4,32.953076,-117.130343,Run,1,2025-12-27 09:13:24,2025-12-27 09:13:24,737,737,2025-12-27 09:13:24,,152.8
20057929,Black Mtn 4.5% Downhilll 800 Repeats,,,825.3,-4.6,32.952956,-117.132387,Run,1,2025-12-27 09:14:20,2025-12-27 09:14:20,241,241,2025-12-27 09:14:20,,147.7
40802238,Bridge to 56,San Diego,California,533.8,0.8,32.953043,-117.141985,Run,1,2025-12-27 09:18:43,2025-12-27 09:18:43,162,162,2025-12-27 09:18:43,,153.3
1554431,get over the bridge hill ,San Diego,CA,177.382,4.2,32.954535520690854,-117.1470620939611,Run,1,2025-12-27 09:21:21,2025-12-27 09:21:21,54,54,2025-12-27 09:21:21,,155.2
11473803,Fish Tale,San Diego,California,653.8,0.8,32.976452,-117.105867,MountainBikeRide,1,2025-12-29 12:04:07,2025-12-29 12:04:07,199,199,2025-12-29 12:04:07,,151.1
11443905,Wing on over to Lugnut,San Diego,California,1910.3,-0.4,32.985392,-117.100468,MountainBikeRide,1,2025-12-29 12:19:29,2025-12-29 12:19:29,943,943,2025-12-29 12:19:29,,143.2
11324931,Demaca Drop,San Diego,California,498.2,-6.7,32.980728,-117.104397,MountainBikeRide,1,2025-12-29 12:28:24,2025-12-29 12:28:24,106,106,2025-12-29 12:28:24,,126.1
6390201,Carmel Mission to Camarena,San Diego,CA,453.1,5.2,32.947815,-117.221381,Run,1,2026-01-01 12:28:26,2026-01-01 12:28:26,173,173,2026-01-01 12:28:26,,150.3
3385367,56 Bike Trail Run,San Diego,CA,2517.13,-0.8,32.9578831,-117.152954,Run,1,2026-01-04 08:35:44,2026-01-04 08:35:44,820,820,2026-01-04 08:35:44,,151.5
6693536,Camino Del Sur DH,San Diego,CA,1280.3,-2.5,32.960556,-117.15662,Run,1,2026-01-04 08:38:32,2026-01-04 08:38:32,387,387,2026-01-04 08:38:32,,149.1
36115660,del sur climb on bridge,San Diego,California,256.0,3.9,32.96426,-117.163923,Run,1,2026-01-04 08:56:26,2026-01-04 08:56:26,99,99,2026-01-04 08:56:26,,160.6
852568,Torrey Santa Fe Rd Climb,San Diego,CA,784.871,5.4,32.96378,-117.1630785,Run,1,2026-01-04 08:57:03,2026-01-04 08:57:03,302,302,2026-01-04 08:57:03,,160.3
11742932,Lusardi Loop,San Diego,California,2336.7,-0.0,32.990076,-117.132378,MountainBikeRide,1,2026-01-06 14:38:30,2026-01-06 14:38:30,1451,1451,2026-01-06 14:38:30,,115.7
31517069,Knoll whole pull,San Diego,California,1127.6,-5.1,32.987793,-117.135429,MountainBikeRide,1,2026-01-06 14:44:49,2026-01-06 14:44:49,754,754,2026-01-06 14:44:49,,121.9
41643258,Upper Black Widow ,San Diego,California,747.0,-9.3,32.979789,-117.116531,MountainBikeRide,1,2026-01-08 13:43:11,2026-01-08 13:43:11,375,375,2026-01-08 13:43:11,,138.0
6433215,Scarface and switches to Laurentian,San Diego,CA,940.4,-16.8,32.979813,-117.116643,MountainBikeRide,1,2026-01-08 13:43:46,2026-01-08 13:43:46,530,530,2026-01-08 13:43:46,,137.0
37160685,Widow Low Flow,San Diego,California,562.9,-11.4,32.978413,-117.120241,MountainBikeRide,1,2026-01-08 13:50:05,2026-01-08 13:50:05,183,183,2026-01-08 13:50:05,,134.2
1181755,My little Pony,San Diego,CA,160.504,13.8,32.973523,-117.119901,MountainBikeRide,1,2026-01-08 13:57:23,2026-01-08 13:57:23,211,211,2026-01-08 13:57:23,,140.7
4175787,Millenium Park - Bottom Ring - CCW,Boston,MA,2200.4,0.1,42.281539,-71.177288,Run,1,2026-01-11 09:24:06,2026-01-11 09:24:06,692,692,2026-01-11 09:24:06,,157.2
5908145,Blind Corners,San Diego,CA,1247.2,-1.7,32.944627,-117.170436,MountainBikeRide,1,2026-01-21 15:17:15,2026-01-21 15:17:15,219,219,2026-01-21 15:17:15,,151.6
1467998,Anderson Ridge,San Diego,CA,468.027,-10.8,32.94498902745545,-117.19152739271522,MountainBikeRide,1,2026-01-23 13:51:59,2026-01-23 13:51:59,93,93,2026-01-23 13:51:59,,136.4
29350312,All Good ,San Diego,California,2430.9,1.2,32.95492,-117.176264,MountainBikeRide,1,2026-01-23 14:00:33,2026-01-23 14:00:33,1094,1094,2026-01-23 14:00:33,,144.6
13485299,Tunel DH-1st Creek,San Diego,California,1577.0,-3.2,32.947413,-117.163142,MountainBikeRide,1,2026-01-28 12:15:06,2026-01-28 12:15:06,679,679,2026-01-28 12:15:06,,144.2
10359863,Switchbacks DH,San Diego,California,1082.0,-6.5,32.949546,-117.173168,MountainBikeRide,1,2026-02-09 13:19:58,2026-02-09 13:19:58,297,297,2026-02-09 13:19:58,,126.1
6529822,Zig Zags DH,San Diego,CA,538.1,-9.8,32.949692,-117.173007,MountainBikeRide,1,2026-02-09 13:20:07,2026-02-09 13:20:07,172,172,2026-02-09 13:20:07,,124.9
1141701,Switch Rocket,San Diego,CA,466.11,-4.3,32.95131308961003,-117.17483365919178,MountainBikeRide,1,2026-02-09 13:23:13,2026-02-09 13:23:13,97,97,2026-02-09 13:23:13,,129.5
3413207,Duck Pond Ranch Loop CounterClockwise,San Diego,CA,4040.71,0.1,32.93404561467469,-117.1778151858598,MountainBikeRide,1,2026-02-13 15:31:11,2026-02-13 15:31:11,1040,1040,2026-02-13 15:31:11,,153.4
15516510,Wheelin-N-Dealin',Midland,Michigan,821.7,-0.4,43.641006,-84.217019,Run,1,2026-02-19 09:32:38,2026-02-19 09:32:38,261,261,2026-02-19 09:32:38,,154.0
6005509,American Pie,San Diego,CA,2949.0,1.2,32.955879,-117.169961,MountainBikeRide,1,2026-03-04 14:31:33,2026-03-04 14:31:33,1028,1028,2026-03-04 14:31:33,,148.9
11807538,Gate to Chain Climb,San Diego,California,785.1,6.4,32.949537,-117.182898,MountainBikeRide,1,2026-03-04 14:39:18,2026-03-04 14:39:18,375,375,2026-03-04 14:39:18,,157.1
3999372,Del Vino (Long),San Diego,CA,1223.6,5.3,32.949103,-117.181537,MountainBikeRide,1,2026-03-04 14:40:03,2026-03-04 14:40:03,576,576,2026-03-04 14:40:03,,152.9
698198,Del Vino Climb,San Diego,CA,245.11,11.7,32.94682969339192,-117.18020277097821,MountainBikeRide,1,2026-03-04 14:42:08,2026-03-04 14:42:08,171,171,2026-03-04 14:42:08,,160.2
12793644,Del Vino Ct.,San Diego,California,393.5,4.6,32.946781,-117.182694,MountainBikeRide,1,2026-03-04 14:46:34,2026-03-04 14:46:34,136,136,2026-03-04 14:46:34,,151.2
4259503,Carson's Crossing,San Diego,CA,189.1,-1.5,32.933205,-117.167772,MountainBikeRide,1,2026-03-06 13:34:07,2026-03-06 13:34:07,76,76,2026-03-06 13:34:07,,107.3
2006617,to work South side,San Diego,CA,1721.83,-0.8,32.92956590652466,-117.16958105564117,MountainBikeRide,1,2026-03-06 13:36:51,2026-03-06 13:36:51,385,385,2026-03-06 13:36:51,,145.4
13075948,Escape from the waterfall,San Diego,California,348.1,3.7,32.925657,-117.178505,MountainBikeRide,1,2026-03-06 13:40:41,2026-03-06 13:40:41,106,106,2026-03-06 13:40:41,,157.4
3763967,PQ Sycamore Crossing to Waterfall,San Diego,CA,955.011,2.5,32.92346,-117.184738,MountainBikeRide,1,2026-03-06 13:53:02,2026-03-06 13:53:02,282,282,2026-03-06 13:53:02,,155.8
8506822,PQ Waterfall to Carson Crossing South side,San Diego,California,1213.6,0.1,32.926412,-117.176618,MountainBikeRide,1,2026-03-06 13:57:48,2026-03-06 13:57:48,257,257,2026-03-06 13:57:48,,142.7
10769583,Carson’s Crossing N,San Diego,California,224.3,0.0,32.93207,-117.166652,MountainBikeRide,1,2026-03-06 14:02:14,2026-03-06 14:02:14,75,75,2026-03-06 14:02:14,,124.8
18186131,Fire Road Climb to Berm DH,San Diego,California,491.4,9.2,32.965169,-117.078799,MountainBikeRide,1,2026-03-11 11:28:15,2026-03-11 11:28:15,363,363,2026-03-11 11:28:15,,136.0
5807908,quick puke,Poway,CA,185.0,10.6,32.963503,-117.0766,MountainBikeRide,1,2026-03-11 11:39:15,2026-03-11 11:39:15,78,78,2026-03-11 11:39:15,,108.9
13347716,HARAMBE,San Diego,California,1568.9,-9.5,32.961846,-117.079673,MountainBikeRide,1,2026-03-11 11:41:58,2026-03-11 11:41:58,1039,1039,2026-03-11 11:41:58,,123.6
30521335,TT jumps ,Poway,California,357.4,-2.9,32.961856,-117.079473,MountainBikeRide,1,2026-03-11 11:43:52,2026-03-11 11:43:52,80,80,2026-03-11 11:43:52,,107.2
14237995,Gorilla Pimpin',San Diego,California,582.3,-5.4,32.962049,-117.078993,MountainBikeRide,1,2026-03-11 11:44:17,2026-03-11 11:44:17,138,138,2026-03-11 11:44:17,,120.1
13727634,TT,San Diego,California,750.1,-7.9,32.962151,-117.078919,MountainBikeRide,1,2026-03-11 11:44:18,2026-03-11 11:44:18,254,254,2026-03-11 11:44:18,,123.9
8638863,Tech Rocks to Park Berms,San Diego,California,197.2,-21.0,32.963634,-117.075659,MountainBikeRide,1,2026-03-11 11:46:17,2026-03-11 11:46:17,135,135,2026-03-11 11:46:17,,128.5
35733188,Gobsmacker,San Diego,California,566.2,-15.2,32.96438,-117.074089,MountainBikeRide,1,2026-03-11 11:48:43,2026-03-11 11:48:43,634,634,2026-03-11 11:48:43,,126.0
2327565,Shoal Summit Dr,Poway,CA,1307.75,7.9,32.964696642011404,-117.0690309908241,MountainBikeRide,1,2026-03-11 12:00:05,2026-03-11 12:00:05,954,954,2026-03-11 12:00:05,,154.7
850130,Cables,San Diego,CA,732.272,6.2,32.939065,-117.169066,MountainBikeRide,1,2026-03-16 14:51:18,2026-03-16 14:51:18,268,268,2026-03-16 14:51:18,,163.7
2568611,connector to turnoff,San Diego,CA,243.823,-0.2,32.9824018,-117.112173,MountainBikeRide,1,2026-03-22 09:27:44,2026-03-22 09:27:44,181,181,2026-03-22 09:27:44,,118.7
28871166,Prostate Check,San Diego,California,1677.0,-1.5,32.990189,-117.132621,MountainBikeRide,1,2026-03-24 12:57:30,2026-03-24 12:57:30,774,774,2026-03-24 12:57:30,,141.1
9719487,Circle-K #2,San Diego,California,2125.6,-0.1,32.985589,-117.134552,MountainBikeRide,1,2026-03-24 13:11:35,2026-03-24 13:11:35,1035,1035,2026-03-24 13:11:35,,151.8
7563043,Knoll Climb,San Diego,CA,534.1,7.6,32.988122,-117.133115,MountainBikeRide,1,2026-03-24 13:14:39,2026-03-24 13:14:39,368,368,2026-03-24 13:14:39,,154.9
7665900,Fire Road climb,San Diego,CA,189.5,11.4,32.98822,-117.133212,MountainBikeRide,1,2026-03-24 13:14:43,2026-03-24 13:14:43,100,100,2026-03-24 13:14:43,,163.3
17379675,73rd St Hill Dash,Seattle,Washington,200.0,10.0,47.68127,-122.307142,Run,1,2026-04-07 08:42:26,2026-04-07 08:42:26,108,108,2026-04-07 08:42:26,,158.7
18722787,Partial Green Lake by CC,Seattle,Washington,4277.7,0.0,47.681432,-122.328966,Run,1,2026-04-08 08:37:53,2026-04-08 08:37:53,1713,1713,2026-04-08 08:37:53,,141.8
12026556,store to kiddie pool,Seattle,Washington,832.7,0.0,47.681542,-122.32896,Run,1,2026-04-08 08:37:57,2026-04-08 08:37:57,460,460,2026-04-08 08:37:57,,122.2
35501133,Green Mile - east court to west court,Seattle,Washington,1616.3,-0.1,47.681654,-122.32897,Run,1,2026-04-08 08:38:01,2026-04-08 08:38:01,695,695,2026-04-08 08:38:01,,133.7
